City_ID,City,Lat,Lng,Max Temp,Humidity,Cloudiness,Wind Speed,Country,Date
0,codrington,-38.2667,141.9667,12.27,84,100,5.28,AU,1681585423
1,palmer,42.1584,-72.3287,25.92,48,75,3.13,US,1681585191
2,bentiu,9.2333,29.8333,31.41,41,27,2.72,SS,1681585424
3,tuktoyaktuk,69.4541,-133.0374,-17.0,85,75,4.12,CA,1681585424
4,punta arenas,-53.15,-70.9167,7.06,81,75,4.12,CL,1681585372
5,bengkulu,-3.8004,102.2655,24.06,91,100,1.71,ID,1681585219
6,bluff,-46.6,168.3333,11.56,88,96,3.04,NZ,1681585425
7,tiznit,29.5833,-9.5,22.31,44,0,1.71,MA,1681585425
8,cidreira,-30.1811,-50.2056,20.39,82,99,5.82,BR,1681585338
9,avarua,-21.2078,-159.775,25.03,73,95,1.03,CK,1681585425
10,kudahuvadhoo,2.6708,72.8944,27.88,75,68,0.95,MV,1681585425
11,cherskiy,68.75,161.3,-18.98,94,31,1.87,RU,1681585426
12,guerrero negro,27.9769,-114.0611,18.16,54,1,5.93,MX,1681585426
13,sao filipe,14.8961,-24.4956,25.15,71,0,3.0,CV,1681585426
14,rikitea,-23.1203,-134.9692,25.73,68,0,2.78,PF,1681585209
15,carauari,-4.8828,-66.8958,27.63,90,100,0.38,BR,1681585146
16,qaanaaq,77.484,-69.3632,-15.5,95,12,1.7,GL,1681585427
17,hilo,19.7297,-155.09,26.82,74,20,2.06,US,1681585427
18,nsanje,-16.92,35.262,22.08,82,64,2.26,MW,1681585427
19,hobart,-42.8794,147.3294,13.48,96,75,4.12,AU,1681585355
20,ushuaia,-54.8,-68.3,7.81,61,0,2.57,AR,1681585205
21,hermanus,-34.4187,19.2345,13.78,73,4,3.72,ZA,1681585428
22,chokurdakh,70.6333,147.9167,-14.92,96,91,4.23,RU,1681585428
23,san juan,-31.5375,-68.5364,18.51,49,97,8.38,AR,1681585428
24,busselton,-33.65,115.3333,16.95,79,100,3.71,AU,1681585428
25,baisha,26.5222,110.9311,17.45,67,0,1.23,CN,1681585428
26,elat,29.5581,34.9482,24.91,38,0,3.6,IL,1681585428
27,jamestown,42.097,-79.2353,26.4,34,0,2.24,US,1681585429
28,umba,66.6871,34.3429,-4.19,99,84,1.9,RU,1681585429
29,port-gentil,-0.7193,8.7815,27.98,83,40,3.09,GA,1681585429
30,mae tha,18.4646,99.1403,28.67,29,10,0.74,TH,1681585429
31,salalah,17.0151,54.0924,28.01,67,0,1.24,OM,1681585429
32,arica,-18.475,-70.3042,27.75,60,0,6.69,CL,1681585172
33,barrow,71.2906,-156.7887,-21.99,77,0,4.12,US,1681585430
34,georgetown,5.4112,100.3354,29.97,80,20,3.6,MY,1681585229
35,lata,40.1629,-8.3327,16.15,86,0,2.08,PT,1681585430
36,hamilton,39.1834,-84.5333,26.62,53,100,1.79,US,1681585240
37,bethel,41.3712,-73.414,25.57,83,100,5.66,US,1681585430
38,albany,42.6001,-73.9662,28.12,45,100,0.89,US,1681585234
39,sola,-13.8833,167.55,24.08,93,100,7.94,VU,1681585431
40,poya,-21.35,165.15,23.29,90,100,1.63,NC,1681585431
41,atuona,-9.8,-139.0333,27.53,71,2,6.02,PF,1681585211
42,vaini,-21.2,-175.2,25.09,88,75,5.14,TO,1681585431
43,taltal,-25.4,-70.4833,21.27,67,15,3.66,CL,1681585318
44,sitka,57.0531,-135.33,6.94,65,100,8.23,US,1681585432
45,abu samrah,35.3029,37.1841,18.33,36,54,3.89,SY,1681585432
46,mataura,-46.1927,168.8643,11.38,90,100,1.23,NZ,1681585432
47,yar-sale,66.8333,70.8333,-14.28,84,95,10.61,RU,1681585432
48,nanortalik,60.1432,-45.2371,2.83,74,100,2.5,GL,1681585432
49,madimba,-10.4,40.3333,25.62,94,20,5.14,TZ,1681585433
50,nhulunbuy,-12.2333,136.7667,26.34,94,100,1.03,AU,1681585433
51,bom jesus da lapa,-13.255,-43.4181,36.06,23,68,3.17,BR,1681585433
52,diban,35.0365,40.5167,20.47,37,20,2.86,SY,1681585433
53,fortuna,40.5982,-124.1573,12.74,73,99,0.89,US,1681585433
54,darhan,49.4867,105.9228,-0.39,58,100,6.88,MN,1681585434
55,babu,24.4167,111.5167,18.23,82,1,0.68,CN,1681585434
56,hithadhoo,-0.6,73.0833,28.89,69,100,3.92,MV,1681585422
57,caravelas,-17.7125,-39.2481,27.84,68,9,3.76,BR,1681585434
58,turan,16.0678,108.2208,25.99,94,75,0.51,VN,1681585434
59,ulaanbaatar,47.9077,106.8832,2.07,30,40,1.0,MN,1681585434
60,bredasdorp,-34.5322,20.0403,14.14,79,3,1.8,ZA,1681585435
61,alofi,-19.0595,-169.9187,22.94,88,75,1.03,NU,1681585435
62,dikson,73.5069,80.5464,-16.17,96,100,6.0,RU,1681585435
63,bronnoysund,65.4625,12.1997,9.0,43,20,6.17,NO,1681585393
64,leningradskiy,69.3833,178.4167,-16.38,85,18,1.99,RU,1681585436
65,saint george,37.1041,-113.5841,20.53,18,0,1.79,US,1681585156
66,marsh harbour,26.5412,-77.0636,25.9,73,86,2.68,BS,1681585436
67,pevek,69.7008,170.3133,-18.05,93,98,2.89,RU,1681585436
68,torbay,47.6666,-52.7314,6.6,65,40,10.29,CA,1681585240
69,vung tau,10.346,107.0843,25.04,86,100,3.67,VN,1681585376
70,mar del plata,-38.0023,-57.5575,19.49,53,100,4.12,AR,1681585437
71,mazamari,-11.3258,-74.5308,32.52,47,100,1.05,PE,1681585437
72,atambua,-9.1061,124.8925,23.02,88,100,0.91,ID,1681585437
73,laguna,38.421,-121.4238,20.56,60,0,3.09,US,1681585437
74,berlevag,70.8578,29.0864,1.97,51,6,5.66,NO,1681585437
75,castro,-24.7911,-50.0119,20.76,75,68,2.05,BR,1681585280
76,port moresby,-9.4431,147.1797,23.68,100,20,2.57,PG,1681585438
77,valparaiso,-33.0393,-71.6273,21.13,60,40,6.69,CL,1681585363
78,nyuksenitsa,60.4128,44.2397,-2.35,92,4,1.96,RU,1681585438
79,soe,-9.8607,124.284,19.05,95,79,0.82,ID,1681585438
80,vestmannaeyjar,63.4427,-20.2734,8.55,81,40,10.8,IS,1681585439
81,katangli,51.7102,143.2326,-5.18,94,89,2.97,RU,1681585439
82,jiangyou,31.7667,104.7167,19.0,71,0,1.97,CN,1681585439
83,faanui,-16.4833,-151.75,27.21,73,95,1.74,PF,1681585439
84,gangakher,18.95,76.75,30.52,29,6,3.19,IN,1681585439
85,esperance,-33.8667,121.9,17.22,71,99,7.36,AU,1681585440
86,lebu,-37.6167,-73.65,14.25,66,0,8.15,CL,1681585405
87,sidi ali,36.0998,0.4206,16.91,45,7,2.4,DZ,1681585440
88,clyde river,70.4692,-68.5914,-10.87,79,100,10.8,CA,1681585440
89,faya,18.3851,42.4509,18.06,64,3,0.84,SA,1681585441
90,ostrovnoy,68.0531,39.5131,-4.74,84,5,4.31,RU,1681585441
91,tiksi,71.6872,128.8694,-19.26,100,100,2.68,RU,1681585441
92,katsuura,35.1333,140.3,16.26,97,100,6.36,JP,1681585442
93,naron,43.5167,-8.1528,15.47,95,17,1.0,ES,1681585442
94,porto novo,6.4965,2.6036,28.2,79,100,4.18,BJ,1681585442
95,mahebourg,-20.4081,57.7,25.7,88,20,1.54,MU,1681585443
96,kisangani,0.5167,25.2,25.98,74,100,0.68,CD,1681585443
97,aykhal,66.0,111.5,-3.87,96,100,10.03,RU,1681585443
98,cape town,-33.9258,18.4232,17.23,72,0,6.71,ZA,1681585444
99,oildale,35.4197,-119.0195,19.86,43,0,1.79,US,1681585444
100,yellowknife,62.456,-114.3525,3.29,60,75,5.14,CA,1681585444
101,butaritari,3.0707,172.7902,27.8,75,78,5.23,KI,1681585444
102,marawi,7.9986,124.2928,21.08,91,97,0.56,PH,1681585445
103,mount isa,-20.7333,139.5,18.87,82,100,7.2,AU,1681585268
104,acapulco,16.8634,-99.8901,29.9,58,75,5.66,MX,1681585445
105,kendari,-3.945,122.4989,24.28,94,91,1.08,ID,1681585445
106,itoman,26.1247,127.6694,20.43,83,75,6.69,JP,1681585445
107,college,64.8569,-147.8028,-1.78,56,20,2.57,US,1681585446
108,saint-philippe,-21.3585,55.7679,24.77,83,49,1.87,RE,1681585446
109,kushmurun,52.4503,64.6311,-3.02,60,100,3.36,KZ,1681585446
110,portland,45.5234,-122.6762,12.64,73,100,3.13,US,1681585369
111,adelaide,-34.9333,138.6,12.96,83,99,12.96,AU,1681585237
112,batemans bay,-35.7167,150.1833,18.94,60,100,4.55,AU,1681585447
113,thompson,55.7435,-97.8558,3.09,41,20,4.12,CA,1681585242
114,shelburne,44.0787,-80.2041,25.62,34,100,1.53,CA,1681585427
115,severo-kurilsk,50.6789,156.125,-1.81,84,43,3.86,RU,1681585448
116,dokka,60.84,10.0618,2.73,100,100,0.74,NO,1681585448
117,victoria,22.2855,114.1577,26.25,80,93,1.17,HK,1681585392
118,carnarvon,-24.8667,113.6333,19.11,37,0,6.91,AU,1681585448
119,khatanga,71.9667,102.5,-17.28,97,96,3.44,RU,1681585449
120,dunedin,-45.8742,170.5036,12.11,80,20,3.58,NZ,1681585223
121,gat,31.61,34.7642,20.22,100,0,2.0,IL,1681585322
122,simpang,-1.2667,104.0833,23.41,98,99,1.04,ID,1681585449
123,kapaa,22.0752,-159.319,24.55,70,0,7.2,US,1681585450
124,lompoc,34.6391,-120.4579,18.34,73,0,3.6,US,1681585413
125,smithers,54.7804,-127.1743,7.18,57,75,3.6,CA,1681585450
126,norman wells,65.282,-126.8329,-10.98,79,100,2.57,CA,1681585451
127,ust-omchug,61.15,149.6333,-16.55,100,96,1.26,RU,1681585451
128,east london,-33.0153,27.9116,16.52,72,0,2.57,ZA,1681585233
129,morgan city,29.6994,-91.2068,21.0,94,75,4.63,US,1681585452
130,iqaluit,63.7506,-68.5145,-6.15,79,100,10.29,CA,1681585231
131,riyadh,24.6877,46.7219,24.08,36,100,1.73,SA,1681585344
132,waddan,29.1614,16.139,22.22,27,100,4.11,LY,1681585452
133,new norfolk,-42.7826,147.0587,13.29,89,100,1.09,AU,1681585452
134,pahrump,36.2083,-115.9839,23.24,11,0,0.89,US,1681585453
135,bendigo,-36.7667,144.2833,11.59,71,100,2.83,AU,1681585368
136,port alfred,-33.5906,26.891,13.99,88,43,0.45,ZA,1681585453
137,san felipe,10.3399,-68.7425,28.26,62,99,3.97,VE,1681585453
138,moranbah,-22.0016,148.0466,19.42,86,40,2.13,AU,1681585454
139,jalu,29.0331,21.5482,24.76,23,1,5.23,LY,1681585454
140,beringovskiy,63.05,179.3167,-16.52,80,26,2.52,RU,1681585454
141,andros town,24.7,-77.7667,27.98,69,99,4.8,BS,1681585454
142,samarai,-10.6167,150.6667,26.6,72,100,4.63,PG,1681585454
143,pishin,30.5803,66.9961,21.69,35,100,1.69,PK,1681585455
144,novo aripuana,-5.1206,-60.3797,27.66,89,100,0.52,BR,1681585455
145,porto velho,-8.7619,-63.9039,28.03,78,40,3.09,BR,1681585288
146,sena madureira,-9.0656,-68.6569,25.4,96,100,1.47,BR,1681585455
147,port elizabeth,-33.918,25.5701,16.29,87,0,3.09,ZA,1681585455
148,skibbereen,51.55,-9.2667,10.06,99,100,4.65,IE,1681585456
149,muisne,0.6,-80.0333,28.43,73,100,4.04,EC,1681585456
150,ribeira grande,38.5167,-28.7,18.22,94,75,7.72,PT,1681585456
151,zhaotong,27.3167,103.7167,15.29,53,100,2.56,CN,1681585457
152,tasiilaq,65.6145,-37.6368,3.09,91,100,4.09,GL,1681585457
153,ancud,-41.8697,-73.8203,13.49,61,0,2.75,CL,1681585457
154,ayagoz,47.9714,80.4392,9.17,68,100,4.48,KZ,1681585457
155,souillac,-20.5167,57.5167,25.21,88,20,1.54,MU,1681585457
156,yeppoon,-23.1333,150.7333,16.88,68,24,2.38,AU,1681585458
157,sabang,5.8933,95.3214,28.57,76,100,5.28,ID,1681585458
158,bambous virieux,-20.3428,57.7575,25.14,88,20,1.54,MU,1681585458
159,san quintin,30.4833,-115.95,17.07,63,0,4.7,MX,1681585458
160,ndola,-12.9587,28.6366,17.44,95,100,3.56,ZM,1681585458
161,kavieng,-2.5744,150.7967,27.5,77,100,1.47,PG,1681585459
162,cabo san lucas,22.8909,-109.9124,27.01,56,0,0.0,MX,1681585459
163,nikolskoye,59.7035,30.7861,6.0,53,100,2.47,RU,1681585459
164,mount gambier,-37.8333,140.7667,10.33,86,13,3.13,AU,1681585459
165,oranjemund,-28.55,16.4333,18.91,43,0,5.58,NA,1681585460
166,toora-khem,52.4675,96.11,-5.13,87,100,1.79,RU,1681585460
167,hofn,64.2539,-15.2082,6.64,77,77,2.27,IS,1681585393
168,vao,-22.6667,167.4833,25.37,86,100,10.28,NC,1681585460
169,umea,63.8284,20.2597,0.96,37,0,1.03,SE,1681585461
170,grand-lahou,5.1367,-5.0242,27.65,83,100,4.13,CI,1681585296
171,port hardy,50.6996,-127.4199,7.1,93,100,1.03,CA,1681585246
172,bud,39.447,-86.1758,27.01,48,1,5.58,US,1681585461
173,springdale,36.1867,-94.1288,27.12,56,40,7.72,US,1681585390
174,chimoio,-19.1164,33.4833,17.32,99,75,3.48,MZ,1681585462
175,kiama,-34.6833,150.8667,20.32,69,100,2.68,AU,1681585462
176,roma,43.2128,-75.4557,28.38,28,0,0.0,US,1681585443
177,beirut,33.8889,35.4944,21.41,56,0,2.06,LB,1681585462
178,shache,38.4167,77.2406,19.84,13,12,2.32,CN,1681585463
179,inhambane,-23.865,35.3833,21.99,78,20,2.24,MZ,1681585463
180,lewistown,40.5992,-77.5714,21.04,88,0,0.0,US,1681585463
181,kloulklubed,7.0419,134.2556,25.28,71,22,2.85,PW,1681585463
182,two hills,53.7169,-111.7518,10.13,49,0,2.06,CA,1681585463
183,huancavelica,-12.7667,-74.9833,9.77,66,100,2.35,PE,1681585464
184,airai,-8.9266,125.4092,15.9,93,100,0.16,TL,1681585464
185,kigoma,-4.8769,29.6267,24.33,88,20,0.0,TZ,1681585464
186,lasa,46.6166,10.7002,6.31,91,47,3.13,IT,1681585464
187,buraydah,26.326,43.975,17.25,83,100,8.03,SA,1681585465
188,catalina foothills,32.2979,-110.9187,26.0,20,0,1.79,US,1681585465
189,arraial do cabo,-22.9661,-42.0278,25.98,78,40,5.66,BR,1681585465
190,los llanos de aridane,28.6585,-17.9182,18.96,77,75,5.66,ES,1681585466
191,brigantine,39.4101,-74.3646,20.11,88,75,6.17,US,1681585466
192,pacific grove,36.6177,-121.9166,17.9,74,0,4.02,US,1681585296
193,kodinsk,58.6881,99.1844,-17.81,98,19,0.26,RU,1681585466
194,dali,25.7,100.1833,16.13,43,100,1.15,CN,1681585467
195,barra do garcas,-15.89,-52.2567,34.32,52,20,1.54,BR,1681585346
196,malakal,9.5334,31.6605,34.59,18,7,1.45,SS,1681585467
197,dhaulpur,26.7,77.9,32.6,20,84,2.82,IN,1681585467
198,west wendover,40.7391,-114.0733,9.56,37,0,3.09,US,1681585467
199,ajdabiya,30.7554,20.2263,17.93,54,100,7.3,LY,1681585468
200,aksarka,66.5606,67.7975,-21.01,100,12,2.06,RU,1681585468
201,hasaki,35.7333,140.8333,14.01,92,100,4.87,JP,1681585468
202,san cristobal,7.7669,-72.225,26.1,37,99,2.68,VE,1681585370
203,lubango,-14.9172,13.4925,18.72,61,43,0.8,AO,1681585469
204,saldanha,-33.0117,17.9442,15.03,77,0,5.32,ZA,1681585469
205,mezen,65.8522,44.24,-8.36,98,21,1.28,RU,1681585469
206,kodiak,57.79,-152.4072,-2.27,74,100,11.32,US,1681585470
207,gwanda,-20.9333,29.0,15.52,94,100,5.3,ZW,1681585470
208,caxias,38.7031,-9.2767,19.63,70,20,8.23,PT,1681585470
209,labuan,5.2767,115.2417,27.2,88,20,0.0,MY,1681585471
210,novokruchininskiy,51.7833,113.7667,-0.15,65,100,1.94,RU,1681585471
211,henties bay,-22.116,14.2845,20.06,60,45,1.32,NA,1681585471
212,sault sainte marie,46.5168,-84.3333,26.31,38,0,3.6,CA,1681585223
213,klaksvik,62.2266,-6.589,7.51,83,7,5.21,FO,1681585472
214,husavik,66.0449,-17.3389,3.57,80,100,1.98,IS,1681585472
215,bozeman,45.6796,-111.0386,7.68,51,0,2.57,US,1681585472
216,xining,36.6167,101.7667,9.65,22,12,0.55,CN,1681585212
217,bathsheba,13.2167,-59.5167,29.34,61,40,8.75,BB,1681585473
218,provideniya,64.3833,-173.3,-13.33,69,100,1.15,RU,1681585473
219,salamanca,40.8333,-6.0,18.88,62,15,2.22,ES,1681585473
220,komsomolskiy,40.4272,71.7189,17.4,48,75,1.03,UZ,1681585473
221,brae,60.3964,-1.353,7.47,81,1,4.66,GB,1681585393
222,pisco,-13.7,-76.2167,28.03,57,0,5.14,PE,1681585474
223,okhotsk,59.3833,143.3,-7.17,97,99,2.86,RU,1681585474
224,bhag,29.0415,67.8239,33.53,13,54,0.75,PK,1681585474
225,alihe,50.5667,123.7167,1.03,60,97,0.96,CN,1681585475
226,constitucion,-35.3333,-72.4167,16.59,65,3,5.78,CL,1681585475
227,waingapu,-9.6567,120.2641,24.9,84,100,2.08,ID,1681585475
228,nemuro,43.3236,145.575,2.48,97,100,9.45,JP,1681585475
229,luderitz,-26.6481,15.1594,20.89,43,0,4.58,NA,1681585475
230,kuah,6.3265,99.8432,28.99,79,20,1.03,MY,1681585476
231,talnakh,69.4865,88.3972,-30.24,85,2,1.73,RU,1681585476
232,batagay-alyta,67.8006,130.4114,-13.31,87,100,1.61,RU,1681585476
233,mabaruma,8.2,-59.7833,26.0,89,75,6.17,GY,1681585476
234,zacualpan,21.25,-105.1667,35.79,49,0,3.71,MX,1681585476
235,walvis bay,-22.9575,14.5053,17.53,82,6,2.57,NA,1681585476
236,longyearbyen,78.2186,15.6401,-0.09,93,100,3.6,SJ,1681585477
237,boyolangu,-8.1181,111.8935,23.46,91,86,1.11,ID,1681585477
238,mandalgovi,45.7625,106.2708,3.75,20,95,4.3,MN,1681585477
239,rio grande,-32.035,-52.0986,21.06,68,100,5.01,BR,1681585477
240,salto,-31.3833,-57.9667,22.15,61,40,4.92,UY,1681585477
241,araouane,18.9048,-3.5265,30.26,6,0,3.66,ML,1681585478
242,hatten,53.0167,8.35,12.12,93,100,1.34,DE,1681585478
243,thai binh,20.45,106.3333,23.18,96,29,1.81,VN,1681585218
244,atocha,-20.9333,-66.2333,15.74,12,15,10.29,BO,1681585478
245,geraldton,-28.7667,114.6,11.23,82,0,1.54,AU,1681585479
246,kruisfontein,-34.0033,24.7314,12.16,70,5,1.8,ZA,1681585479
247,hobyo,5.3505,48.5268,28.84,73,23,6.54,SO,1681585479
248,yarada,17.65,83.2667,28.92,78,99,4.44,IN,1681585479
249,ratnagiri,16.9833,73.3,27.33,71,0,3.36,IN,1681585479
250,deputatskiy,69.3,139.9,-16.9,99,100,1.04,RU,1681585479
251,san patricio,28.017,-97.5169,32.97,44,0,3.59,US,1681585480
252,derzhavinsk,51.1,66.3167,-5.57,88,100,5.79,KZ,1681585480
253,aklavik,68.2191,-135.0107,-15.0,66,75,4.63,CA,1681585480
254,nouadhibou,20.931,-17.0347,20.99,83,40,3.6,MR,1681585422
255,jurado,7.1053,-77.7641,27.01,86,100,2.6,CO,1681585480
256,jacareacanga,-6.2222,-57.7528,30.29,69,100,0.75,BR,1681585481
257,pundaguitan,6.3711,126.1689,27.56,77,61,1.28,PH,1681585481
258,ponta do sol,32.6667,-17.1,21.74,69,0,2.61,PT,1681585228
259,nueve de julio,-35.4444,-60.8831,21.65,37,88,0.89,AR,1681585481
260,ransang,8.9603,117.5828,25.62,82,0,0.94,PH,1681585481
261,tilichiki,60.4667,166.1,-15.33,96,82,3.84,RU,1681585481
262,mangaratiba,-22.9597,-44.0406,24.48,90,84,4.74,BR,1681585481
263,bulgan,48.8125,103.5347,6.12,57,100,0.79,MN,1681585482
264,coquimbo,-29.9533,-71.3436,19.85,63,0,6.69,CL,1681585390
265,te anau,-45.4167,167.7167,8.96,84,100,0.53,NZ,1681585482
266,rincon,32.296,-81.2354,27.98,34,40,3.09,US,1681585482
267,hovd,48.0056,91.6419,12.2,41,4,5.24,MN,1681585482
268,vestmanna,62.1564,-7.1664,6.51,81,75,3.09,FO,1681585483
269,ninghai,29.2892,121.4247,14.46,94,1,1.78,CN,1681585483
270,alice,27.7523,-98.0697,34.72,43,0,3.6,US,1681585483
271,kolda,12.8833,-14.95,42.17,24,0,2.06,SN,1681585483
272,chernyshevsk,52.5243,117.0174,-0.22,51,98,2.1,RU,1681585483
273,bejar,40.3864,-5.7634,12.07,68,0,2.99,ES,1681585484
274,leh,34.1667,77.5833,-2.17,67,82,1.05,IN,1681585484
275,namibe,-15.1961,12.1522,24.2,74,44,3.34,AO,1681585466
276,mnogovershinnyy,53.9353,139.9242,-7.32,98,94,1.15,RU,1681585484
277,ixtapa,20.7,-105.2,26.57,50,20,4.63,MX,1681585484
278,ketchikan,55.3422,-131.6461,6.26,81,100,7.2,US,1681585484
279,moroto,2.5345,34.6666,22.42,60,26,7.38,UG,1681585484
280,raisen,23.3333,77.8,29.02,28,5,2.08,IN,1681585485
281,groningen,53.25,6.75,8.36,92,100,4.63,NL,1681585485
282,hambantota,6.1241,81.1185,25.19,100,0,1.03,LK,1681585485
283,pangai,-19.8,-174.35,26.06,78,20,6.17,TO,1681585485
284,saint anthony,45.0205,-93.218,6.92,92,100,6.17,US,1681585244
285,portree,57.4129,-6.1942,9.73,75,100,3.71,GB,1681585486
286,tautira,-17.7333,-149.15,26.59,78,15,5.26,PF,1681585279
287,alice springs,-23.7,133.8833,8.75,100,9,2.57,AU,1681585438
288,les cayes,18.2,-73.75,28.26,68,98,4.88,HT,1681585486
289,nishihara,26.1842,127.7558,20.03,83,75,6.69,JP,1681585486
290,tacuarembo,-31.7333,-55.9833,23.65,33,6,5.0,UY,1681585486
291,ilulissat,69.2167,-51.1,0.01,69,20,2.06,GL,1681585487
292,princeton,25.5384,-80.4089,31.68,70,40,3.6,US,1681585209
293,kota belud,6.351,116.4305,25.06,90,74,1.44,MY,1681585487
294,canela,-29.3656,-50.8156,16.82,97,100,0.89,BR,1681585487
295,znamenskoye,57.1281,73.8282,-2.34,60,100,3.54,RU,1681585488
296,puerto ayora,-0.7393,-90.3518,31.98,89,71,4.02,EC,1681585488
297,westport,41.1415,-73.3579,23.69,94,100,4.63,US,1681585207
298,havoysund,70.9963,24.6622,2.13,58,5,2.71,NO,1681585488
299,port macquarie,-31.4333,152.9167,13.83,89,41,4.92,AU,1681585350
300,kursk,51.7303,36.1939,5.11,60,0,6.0,RU,1681585470
301,vila franca do campo,37.7167,-25.4333,17.23,82,100,5.8,PT,1681585489
302,scarborough,54.2797,-0.4044,9.95,82,14,2.24,GB,1681585233
303,tura,25.5198,90.2201,26.52,25,100,1.35,IN,1681585489
304,takaka,-40.85,172.8,15.31,83,70,1.4,NZ,1681585489
305,ankpa,7.3706,7.6253,30.31,50,81,4.85,NG,1681585489
306,winslow,35.0242,-110.6974,17.1,13,0,2.57,US,1681585490
307,placerville,38.7296,-120.7986,19.67,44,0,3.6,US,1681585490
308,ossora,59.2353,163.0719,-0.08,98,100,4.12,RU,1681585490
309,omachi,36.5,137.8667,10.79,96,80,1.49,JP,1681585490
310,praia da vitoria,38.7333,-27.0667,19.14,82,75,10.81,PT,1681585490
311,birjand,32.8663,59.2211,19.26,13,0,2.06,IR,1681585491
312,katherine,-14.4667,132.2667,25.18,94,100,1.54,AU,1681585491
313,fianarantsoa,-21.4333,47.0833,16.17,94,100,1.29,MG,1681585491
314,vilhena,-12.7406,-60.1458,29.12,65,75,3.09,BR,1681585462
315,tabou,4.423,-7.3528,27.72,81,100,3.41,CI,1681585491
316,chifeng,42.2683,118.9636,2.65,60,13,2.19,CN,1681585492
317,mumford,5.2618,-0.759,27.79,84,97,5.39,GH,1681585492
318,troitsko-pechorsk,62.7084,56.1964,-3.86,91,14,3.46,RU,1681585492
319,santiago del estero,-27.7951,-64.2615,16.78,67,100,2.0,AR,1681585233
320,korla,41.7597,86.1469,17.92,20,0,0.12,CN,1681585492
321,kuytun,54.3419,101.5036,-7.52,79,100,2.88,RU,1681585493
322,jadu,31.953,12.0261,18.07,20,0,3.04,LY,1681585493
323,kenda,23.2,86.5333,32.26,15,100,2.47,IN,1681585493
324,arroyo,41.6096,-4.7969,18.02,50,0,8.75,ES,1681585493
325,ranong,9.9658,98.6348,25.9,83,75,2.4,TH,1681585493
326,salinas,36.6777,-121.6555,18.88,65,0,3.6,US,1681585371
327,huarmey,-10.0681,-78.1522,26.52,73,100,2.14,PE,1681585494
328,marzuq,14.4,46.4667,24.16,58,38,3.08,YE,1681585494
329,bargi,22.9833,79.8667,29.08,29,100,1.83,IN,1681585495
330,niono,14.2526,-5.993,34.95,10,5,2.97,ML,1681585495
331,olinda,-8.0089,-34.8553,28.85,65,40,3.09,BR,1681585421
332,pandamatenga,-18.5278,25.627,20.78,32,24,1.35,BW,1681585300
333,puerto lopez,4.0845,-72.956,35.46,36,92,1.9,CO,1681585495
334,placido de castro,-10.3353,-67.1856,26.99,93,100,0.79,BR,1681585496
335,banjar,-8.19,114.9675,24.91,91,55,1.86,ID,1681585496
336,itarema,-2.9248,-39.9167,27.33,85,99,3.75,BR,1681585383
337,menongue,-14.6585,17.691,18.25,53,5,2.19,AO,1681585496
338,oistins,13.0667,-59.5333,29.05,61,40,8.75,BB,1681585496
339,grindavik,63.8424,-22.4338,9.97,71,75,8.23,IS,1681585497
340,aguimes,27.9054,-15.4461,19.35,64,20,10.8,ES,1681585497
341,petropavlovsk-kamchatskiy,53.0452,158.6483,-0.67,100,100,1.0,RU,1681585497
342,bose,45.4612,8.0137,12.77,63,59,2.09,IT,1681585497
343,petrov val,50.1434,45.2096,2.62,49,18,3.76,RU,1681585497
344,saint-raymond,45.467,-73.6095,25.13,38,20,5.14,CA,1681585238
345,tabuk,17.4189,121.4443,23.42,93,100,0.77,PH,1681585498
346,odesskoye,54.2111,72.9651,-4.31,46,2,2.24,RU,1681585498
347,khasan,42.4308,130.6434,1.45,100,100,1.5,RU,1681585498
348,inirida,3.8653,-67.9239,30.29,68,100,1.48,CO,1681585498
349,altay,47.8667,88.1167,6.73,90,100,0.69,CN,1681585498
350,bukachacha,52.9833,116.9167,-4.14,70,100,1.6,RU,1681585499
351,avera,33.194,-82.5271,27.03,44,32,3.86,US,1681585499
352,bogorodskoye,56.55,37.8833,2.46,56,100,2.82,RU,1681585499
353,gazanjyk,39.2446,55.5154,16.36,41,0,3.2,TM,1681585499
354,cayenne,4.9333,-52.3333,28.02,78,75,5.14,GF,1681585499
355,kavaratti,10.5669,72.642,28.67,77,91,2.92,IN,1681585499
356,panorama,40.5878,23.0315,14.27,54,20,2.06,GR,1681585500
357,urussu,54.5981,53.4631,0.34,48,5,2.42,RU,1681585500
358,terlizzi,41.1311,16.5453,11.53,93,75,1.03,IT,1681585500
359,along,28.1667,94.7667,21.01,76,69,0.9,IN,1681585500
360,mercedes,-34.6515,-59.4307,21.59,49,81,2.74,AR,1681585500
361,tupa,-21.9347,-50.5136,25.57,71,42,1.4,BR,1681585450
362,sol-iletsk,51.1631,54.9918,-3.61,79,100,5.75,RU,1681585501
363,pocone,-16.2567,-56.6228,29.84,68,91,1.16,BR,1681585501
364,grand gaube,-20.0064,57.6608,25.22,81,100,3.9,MU,1681585501
365,minab,27.1467,57.0801,23.52,64,99,2.31,IR,1681585502
366,tena,-0.9833,-77.8167,30.09,86,100,0.52,EC,1681585502
367,kenai,60.5544,-151.2583,3.05,69,100,4.12,US,1681585502
368,vanderhoof,54.0166,-124.0198,5.32,73,100,3.34,CA,1681585503
369,kralendijk,12.15,-68.2667,30.99,58,75,8.23,BQ,1681585300
370,coihaique,-45.5752,-72.0662,14.97,41,0,1.54,CL,1681585504
371,istmina,5.1605,-76.684,29.3,71,100,1.43,CO,1681585504
372,kulhudhuffushi,6.6221,73.07,28.4,72,28,1.32,MV,1681585505
373,colares,38.7992,-9.4469,19.55,73,20,7.72,PT,1681585505
374,ahipara,-35.1667,173.1667,18.23,76,100,7.86,NZ,1681585505
375,nizhniy kuranakh,58.8353,125.4869,-11.28,96,13,1.66,RU,1681585505
376,tortoli,39.9256,9.6572,12.01,61,0,6.88,IT,1681585506
377,waipawa,-41.4122,175.5153,9.33,91,8,2.73,NZ,1681585506
378,tuatapere,-46.1333,167.6833,10.29,88,100,1.93,NZ,1681585506
379,thinadhoo,0.5333,72.9333,27.72,77,51,2.79,MV,1681585506
380,valdivia,-39.8142,-73.2459,17.05,37,0,2.26,CL,1681585369
381,natchez,31.5604,-91.4032,18.12,94,0,1.54,US,1681585507
382,yulara,-25.2406,130.9889,11.82,56,0,3.88,AU,1681585507
383,poronaysk,49.2167,143.1167,-2.35,70,100,2.64,RU,1681585507
384,bilibino,68.0546,166.4372,-20.74,87,10,1.46,RU,1681585507
385,cockburn town,21.4612,-71.1419,27.98,69,40,5.14,TC,1681585508
386,dalvik,65.9702,-18.5286,4.96,84,73,0.98,IS,1681585508
387,baicheng,45.6167,122.8167,3.79,35,12,4.04,CN,1681585509
388,okha,53.5739,142.9478,-7.67,97,53,2.56,RU,1681585509
389,high level,58.5169,-117.136,7.06,53,20,3.09,CA,1681585367
390,panzhihua,26.5851,101.7128,16.88,63,24,1.26,CN,1681585510
391,santa cruz,-17.8,-63.1667,21.7,88,100,2.06,BO,1681585303
392,buchanan,5.8808,-10.0467,27.71,83,100,3.21,LR,1681585512
393,nalut,30.3333,10.85,20.58,24,0,3.14,LY,1681585512
394,lodwar,3.1191,35.5973,29.93,48,2,9.16,KE,1681585513
395,half moon bay,37.4636,-122.4286,17.73,68,0,5.66,US,1681585513
396,falun,60.6036,15.626,3.23,64,100,2.5,SE,1681585513
397,dicabisagan,17.0818,122.4157,25.03,90,99,1.53,PH,1681585514
398,vitim,59.4511,112.5578,-8.23,95,100,3.53,RU,1681585514
399,szprotawa,51.5656,15.5366,10.14,86,100,1.24,PL,1681585514
400,kirakira,-10.4544,161.9205,23.91,92,100,0.32,SB,1681585514
401,kota kinabalu,5.9749,116.0724,27.99,89,20,1.54,MY,1681585514
402,upernavik,72.7868,-56.1549,-11.0,92,100,3.41,GL,1681585515
403,sumbe,-11.2061,13.8437,27.0,85,100,3.75,AO,1681585515
404,narsaq,60.9167,-46.05,10.12,71,96,3.47,GL,1681585393
405,sijunjung,-0.6876,100.9537,22.16,94,100,1.07,ID,1681585515
406,stornoway,58.2093,-6.3865,9.98,79,100,1.54,GB,1681585515
407,lagoa,39.05,-27.9833,17.13,84,30,7.89,PT,1681585516
408,turkistan,43.0,68.0,18.47,31,9,4.08,KZ,1681585516
409,samut prakan,13.5,100.45,30.02,77,8,4.74,TH,1681585517
410,san vicente,-26.6167,-54.1333,23.3,68,99,0.12,AR,1681585517
411,sibut,5.718,19.0739,25.53,70,96,0.16,CF,1681585518
412,chuy,-33.6971,-53.4616,17.98,57,100,4.39,UY,1681585520
413,vila velha,-20.3297,-40.2925,24.97,90,75,3.09,BR,1681585520
414,veraval,20.9,70.3667,25.68,83,0,3.4,IN,1681585521
415,lisala,2.15,21.5167,25.37,70,100,0.95,CD,1681585521
416,dingle,10.9995,122.6711,25.31,85,97,0.62,PH,1681585522
417,enshi,30.3,109.4833,18.7,67,0,0.85,CN,1681585522
418,tanda,26.55,82.65,30.0,14,100,2.59,IN,1681585522
419,talikota,16.4833,76.3167,30.54,29,6,3.86,IN,1681585522
420,kununurra,-15.7667,128.7333,24.99,100,100,1.03,AU,1681585523
421,mecca,21.4267,39.8261,26.93,67,0,2.32,SA,1681585523
422,tarauaca,-8.1614,-70.7656,24.39,96,100,1.58,BR,1681585523
423,ilhabela,-23.7781,-45.3581,23.83,87,49,2.08,BR,1681585523
424,lorengau,-2.0226,147.2712,27.58,81,100,5.43,PG,1681585523
425,san pedro,14.35,121.0167,26.86,90,40,1.03,PH,1681585294
426,la palma,33.8464,-118.0467,24.26,59,0,3.09,US,1681585524
427,losinyy,57.1386,61.0666,-6.14,85,91,2.09,RU,1681585524
428,ocos,14.5094,-92.1933,34.1,42,5,7.32,GT,1681585524
429,isoka,-10.1606,32.6335,17.4,98,100,1.76,ZM,1681585525
430,karratha,-20.7377,116.8463,22.28,27,84,7.84,AU,1681585525
431,port lincoln,-34.7333,135.8667,13.44,60,100,4.95,AU,1681585245
432,acarau,-2.8856,-40.12,26.91,80,57,1.19,BR,1681585525
433,prince rupert,54.3161,-130.3201,6.05,81,75,11.83,CA,1681585312
434,zalantun,48.0,122.7167,1.63,49,14,2.16,CN,1681585526
435,cam ranh,11.9214,109.1591,27.98,89,75,1.03,VN,1681585526
436,payo,-3.7508,103.6372,22.8,95,100,0.88,ID,1681585526
437,am timan,11.0297,20.2827,36.68,16,31,1.78,TD,1681585334
438,talara,-4.5772,-81.2719,29.42,74,40,4.12,PE,1681585527
439,chiltepec,18.4847,-96.9019,35.73,28,3,2.39,MX,1681585527
440,manicore,-5.8092,-61.3003,28.97,74,75,4.63,BR,1681585527
441,borger,52.9233,6.7931,8.35,93,100,5.47,NL,1681585527
442,ranfurly,-45.1333,170.1,8.15,75,5,2.01,NZ,1681585527
443,anloga,5.7947,0.8973,28.32,81,63,6.41,GH,1681585528
444,marsala,37.7966,12.4352,14.41,81,96,9.84,IT,1681585528
445,fuerte olimpo,-21.0415,-57.8738,26.73,67,100,1.07,PY,1681585528
446,uniara,26.15,75.2167,29.48,21,0,3.67,IN,1681585528
447,port blair,11.6667,92.75,26.95,76,98,2.75,IN,1681585528
448,morrinhos,-17.7311,-49.0994,26.62,71,91,1.15,BR,1681585529
449,oktyabrskiy,54.4815,53.471,0.49,49,5,2.77,RU,1681585529
450,guadalajara,20.6667,-103.3333,27.21,24,40,3.6,MX,1681585529
451,malanville,11.8685,3.3899,33.43,19,100,0.93,BJ,1681585530
452,broken hill,-31.95,141.4333,10.46,71,0,6.58,AU,1681585355
453,mayo,38.8876,-76.5119,25.9,75,75,4.12,US,1681585530
454,tazovskiy,67.4667,78.7,-22.23,95,100,3.65,RU,1681585530
455,pimenta bueno,-11.6725,-61.1936,28.96,73,95,1.41,BR,1681585530
456,mayumba,-3.432,10.6554,27.44,78,100,3.22,GA,1681585531
457,tarakan,3.3,117.6333,26.31,82,95,1.76,ID,1681585531
458,calvia,39.5657,2.5062,17.26,74,13,5.09,ES,1681585532
459,ayan,56.45,138.1667,-5.4,95,100,2.51,RU,1681585532
460,monte alegre,-2.0078,-54.0692,31.18,65,100,2.35,BR,1681585532
461,celestun,20.8667,-90.4,31.93,56,1,4.17,MX,1681585533
462,tombouctou,20.0,-3.0,30.67,7,0,4.67,ML,1681585533
463,porto torres,40.835,8.3972,15.1,60,31,12.39,IT,1681585533
464,margate,51.3813,1.3862,10.17,83,5,0.89,GB,1681585533
465,susanville,40.4163,-120.653,15.51,29,0,2.24,US,1681585533
466,kahului,20.8947,-156.47,24.98,79,40,5.14,US,1681585534
467,dalbandin,28.8947,64.4101,26.72,28,18,4.41,PK,1681585534
468,timra,62.487,17.3257,-0.18,74,100,1.03,SE,1681585534
469,ankang,32.68,109.0172,17.2,72,0,1.23,CN,1681585534
470,praia,14.9215,-23.5087,29.3,21,0,8.75,CV,1681585534
471,saskylakh,71.9167,114.0833,-17.4,100,75,1.78,RU,1681585534
472,afua,-0.1567,-50.3867,28.73,79,85,2.38,BR,1681585298
473,hokitika,-42.7167,170.9667,11.67,70,70,2.28,NZ,1681585535
474,soloneshnoye,51.6544,84.3197,-5.24,97,100,1.23,RU,1681585535
475,matara,5.9485,80.5353,25.35,87,72,0.91,LK,1681585535
476,nakamura,32.9833,132.9333,11.49,98,100,1.64,JP,1681585535
477,tyrma,50.0833,132.1667,-1.75,76,21,1.31,RU,1681585536
478,ishim,56.1128,69.4902,-3.21,51,94,3.56,RU,1681585536
479,minggang,32.4586,114.0486,16.08,75,1,1.88,CN,1681585536
480,lufilufi,-13.8745,-171.5986,24.88,77,100,1.34,WS,1681585536
481,terrace bay,48.7834,-87.1,12.48,86,90,3.09,CA,1681585536
482,atasu,48.6814,71.6433,-2.61,69,100,4.25,KZ,1681585537
483,amberley,39.2048,-84.428,26.29,53,75,2.24,US,1681585268
484,zemetchino,53.4973,42.6163,3.08,42,94,3.15,RU,1681585537
485,vanimo,-2.6741,141.3028,25.43,88,100,2.23,PG,1681585537
486,kropotkin,45.4375,40.5756,5.73,81,0,5.91,RU,1681585512
487,kaitangata,-46.2817,169.8464,10.52,86,0,1.15,NZ,1681585537
488,acajutla,13.5928,-89.8275,33.45,49,40,4.92,SV,1681585538
489,mitu,1.1983,-70.1733,31.22,56,98,2.03,CO,1681585538
490,touros,-5.1989,-35.4608,26.61,84,100,5.32,BR,1681585538
491,obo,5.3998,26.4869,21.05,97,100,3.82,CF,1681585538
492,edgewater,28.9889,-80.9023,34.05,65,40,5.14,US,1681585538
493,gizo,-8.103,156.8419,28.01,67,65,5.48,SB,1681585539
494,richards bay,-28.783,32.0377,17.71,75,0,2.06,ZA,1681585539
495,vigrestad,58.5667,5.7,9.42,89,100,2.05,NO,1681585539
496,darnah,32.767,22.6367,16.21,69,100,5.39,LY,1681585539
497,moyale,3.5167,39.0584,21.97,71,51,2.61,KE,1681585539
498,oxbow,49.2333,-102.1676,7.02,66,100,3.62,CA,1681585540
499,jammalamadugu,14.8333,78.4,31.41,27,2,2.34,IN,1681585540
500,coos bay,43.3665,-124.2179,13.51,66,100,4.63,US,1681585513
501,zunyi,27.6867,106.9072,16.64,85,3,1.52,CN,1681585540
502,rayong,12.8333,101.4333,29.61,79,100,3.45,TH,1681585401
503,tadine,-21.55,167.8833,25.76,83,100,10.29,NC,1681585540
504,changji,44.0167,87.3167,17.44,48,77,4.0,CN,1681585540
505,kharian,32.8149,73.8636,27.1,25,99,2.22,PK,1681585541
506,zhanakorgan,43.9098,67.2495,19.1,27,100,3.14,KZ,1681585541
507,bandarbeyla,9.4942,50.8122,27.95,74,20,4.26,SO,1681585541
508,hirara,24.8,125.2833,20.92,94,100,4.63,JP,1681585541
509,qaqortoq,60.7167,-46.0333,4.51,66,99,3.0,GL,1681585542
510,kerouane,9.2667,-9.0167,33.38,29,100,0.9,GN,1681585542
511,lithakia,37.7167,20.8333,11.65,68,100,1.97,GR,1681585542
512,bridgewater,44.3835,-64.5155,13.15,53,11,6.17,CA,1681585249
513,urumqi,43.801,87.6005,15.53,48,57,4.0,CN,1681585542
514,shenjiamen,29.9576,122.298,14.52,92,0,6.03,CN,1681585542
515,broome,42.2506,-75.833,25.71,53,40,3.09,US,1681585543
516,eureka,40.8021,-124.1637,13.29,70,86,2.24,US,1681585543
517,vardo,70.3705,31.1107,-1.01,59,3,0.0,NO,1681585392
518,arlit,18.7369,7.3853,33.18,10,98,4.07,NE,1681585543
519,buta,2.7858,24.73,20.65,97,100,1.81,CD,1681585543
520,sorong,-0.8833,131.25,27.36,79,100,1.9,ID,1681585543
521,port keats,-14.25,129.55,26.98,78,100,1.27,AU,1681585543
522,havelock,34.8791,-76.9013,27.97,65,75,7.2,US,1681585544
523,warwick,41.7001,-71.4162,27.07,73,75,4.12,US,1681585544
524,sioux lookout,50.1001,-91.917,-1.96,93,100,3.6,CA,1681585544
525,son la,21.3167,103.9,19.97,91,100,1.11,VN,1681585544
526,peruibe,-24.32,-46.9983,23.75,89,64,2.3,BR,1681585545
527,xinqing,48.2333,129.5,-0.67,67,84,2.19,CN,1681585545
528,alvik,60.7477,14.8746,5.04,95,100,1.71,SE,1681585545
529,kurush,41.2841,47.8345,-2.05,92,59,3.05,RU,1681585545
530,paamiut,61.994,-49.6678,0.21,71,8,5.38,GL,1681585545
531,umm lajj,25.0213,37.2685,25.75,53,0,2.1,SA,1681585545
532,haapsalu,58.9431,23.5414,7.17,47,99,4.34,EE,1681585546
533,qasigiannguit,68.8193,-51.1922,0.14,83,12,0.95,GL,1681585546
534,batagay,67.6333,134.6333,-13.46,99,100,0.56,RU,1681585546
535,moose factory,51.2585,-80.6094,4.0,65,75,4.63,CA,1681585546
536,gavle,60.6745,17.1417,0.77,75,12,0.45,SE,1681585546
537,taunsa,30.7048,70.6505,33.75,16,100,1.56,PK,1681585547
538,hvide sande,56.0045,8.1294,11.72,88,95,3.99,DK,1681585547
539,punta alta,-38.8759,-62.0736,21.71,40,51,1.36,AR,1681585547
540,jiazi,22.8779,116.067,22.44,87,0,3.07,CN,1681585547
541,srednekolymsk,67.45,153.6833,-19.13,100,53,2.33,RU,1681585547
542,raudeberg,61.9875,5.1352,7.2,70,100,1.3,NO,1681585547
