City_ID,City,Lat,Lng,Max Temp,Humidity,Cloudiness,Wind Speed,Country,Date
0,ponta do sol,32.6667,-17.1,21.18,72,0,2.72,PT,1681586085
1,rio verde de mato grosso,-18.9181,-54.8442,27.84,72,100,0.62,BR,1681585855
2,avarua,-21.2078,-159.775,25.03,73,95,1.03,CK,1681586085
3,bengkulu,-3.8004,102.2655,24.41,90,100,1.99,ID,1681586085
4,tura,25.5198,90.2201,26.52,25,100,1.35,IN,1681585489
5,punta arenas,-53.15,-70.9167,8.06,81,100,5.14,CL,1681586086
6,nikolskoye,59.7035,30.7861,6.0,53,100,2.47,RU,1681586086
7,iqaluit,63.7506,-68.5145,-6.28,79,29,10.28,CA,1681585859
8,puerto ayora,-0.7393,-90.3518,31.98,89,71,4.02,EC,1681585488
9,mataura,-46.1927,168.8643,11.38,90,100,1.23,NZ,1681586086
10,vaini,-21.2,-175.2,25.09,88,75,5.14,TO,1681586087
11,bubaque,11.2833,-15.8333,25.97,84,0,8.57,GW,1681586087
12,wuda,39.4994,106.7117,12.2,24,92,3.34,CN,1681586087
13,coihaique,-45.5752,-72.0662,14.97,41,0,1.54,CL,1681585504
14,hasaki,35.7333,140.8333,14.01,92,100,4.87,JP,1681586087
15,jamestown,42.097,-79.2353,26.4,34,0,2.24,US,1681585941
16,rikitea,-23.1203,-134.9692,25.72,68,0,3.0,PF,1681586088
17,chingirlau,51.095,54.0814,-4.46,84,98,4.52,KZ,1681586088
18,prado,-17.3411,-39.2208,27.36,73,8,5.6,BR,1681585988
19,radis,36.7681,10.2753,16.95,51,40,5.66,TN,1681586088
20,hovd,48.0056,91.6419,12.2,41,4,5.24,MN,1681585843
21,mar del plata,-38.0023,-57.5575,19.49,52,96,1.79,AR,1681585822
22,baykit,61.67,96.37,-25.17,100,44,0.88,RU,1681586088
23,upernavik,72.7868,-56.1549,-11.0,92,100,3.41,GL,1681585515
24,chokurdakh,70.6333,147.9167,-14.92,96,91,4.23,RU,1681586089
25,east london,-33.0153,27.9116,17.77,68,95,3.1,ZA,1681586089
26,belmonte,-15.8631,-38.8828,27.62,70,55,4.29,BR,1681586089
27,atuona,-9.8,-139.0333,27.16,75,10,6.56,PF,1681586089
28,fortuna,40.5982,-124.1573,13.53,71,99,0.89,US,1681586090
29,khatanga,71.9667,102.5,-17.28,97,96,3.44,RU,1681586090
30,rawson,-43.3002,-65.1023,14.09,48,11,2.6,AR,1681586090
31,codrington,-38.2667,141.9667,12.27,84,100,5.28,AU,1681586090
32,saskylakh,71.9167,114.0833,-17.4,100,75,1.78,RU,1681585534
33,tasiilaq,65.6145,-37.6368,3.09,91,100,4.09,GL,1681586091
34,pangnirtung,66.1451,-65.7125,-7.0,86,0,4.63,CA,1681586091
35,faanui,-16.4833,-151.75,27.21,73,95,1.74,PF,1681586091
36,qaqortoq,60.7167,-46.0333,4.51,66,99,3.0,GL,1681585542
37,buchanan,5.8808,-10.0467,27.71,83,100,3.21,LR,1681585512
38,alofi,-19.0595,-169.9187,22.94,88,75,1.03,NU,1681586091
39,kapaa,22.0752,-159.319,24.55,70,0,7.2,US,1681586092
40,obernai,48.4631,7.481,11.73,62,0,5.14,FR,1681586092
41,albany,42.6001,-73.9662,28.16,42,100,2.24,US,1681585837
42,risod,19.9667,76.7833,28.54,31,76,2.27,IN,1681586092
43,chuy,-33.6971,-53.4616,17.98,57,100,4.39,UY,1681585520
44,qaanaaq,77.484,-69.3632,-15.5,95,12,1.7,GL,1681586093
45,kaputa,-8.4689,29.6619,21.81,84,100,1.01,ZM,1681586093
46,san cristobal,7.7669,-72.225,27.1,37,99,2.68,VE,1681586093
47,saint-philippe,-21.3585,55.7679,24.77,83,49,1.87,RE,1681586093
48,souillac,-20.5167,57.5167,25.21,88,40,1.54,MU,1681586094
49,tiksi,71.6872,128.8694,-19.26,100,100,2.68,RU,1681586094
50,bend,44.0582,-121.3153,14.57,30,100,2.24,US,1681585961
51,sao joao da barra,-21.6403,-41.0511,32.05,82,48,4.23,BR,1681586094
52,nome,64.5011,-165.4064,-12.72,72,0,0.0,US,1681586094
53,ushuaia,-54.8,-68.3,7.79,86,100,0.82,AR,1681585852
54,inhambane,-23.865,35.3833,21.99,73,20,1.54,MZ,1681586094
55,flinders,-34.5833,150.8552,20.21,70,100,1.79,AU,1681586095
56,kodiak,57.79,-152.4072,-2.27,74,100,11.32,US,1681586095
57,hermanus,-34.4187,19.2345,13.78,73,4,3.72,ZA,1681586095
58,araceli,10.5529,119.9913,27.32,72,10,0.99,PH,1681586095
59,bambous virieux,-20.3428,57.7575,25.14,88,40,1.54,MU,1681586095
60,tuktoyaktuk,69.4541,-133.0374,-16.0,85,100,4.12,CA,1681586095
61,banda aceh,5.5577,95.3222,26.87,82,100,3.76,ID,1681585851
62,tevriz,57.509,72.4042,-1.81,51,100,3.9,RU,1681586096
63,maues,-3.3836,-57.7186,31.12,68,100,0.9,BR,1681586096
64,bredasdorp,-34.5322,20.0403,14.14,79,3,1.8,ZA,1681586096
65,mecca,21.4267,39.8261,26.93,67,0,2.32,SA,1681585523
66,carmo do rio claro,-20.9719,-46.1189,24.35,76,100,2.67,BR,1681586097
67,torit,4.4133,32.5678,26.31,56,98,0.59,SS,1681586097
68,tromso,69.6496,18.957,4.1,56,0,1.03,NO,1681586097
69,sur,22.5667,59.5289,29.49,56,4,2.69,OM,1681586097
70,port alfred,-33.5906,26.891,13.99,88,43,0.45,ZA,1681586097
71,busselton,-33.65,115.3333,16.95,79,100,3.71,AU,1681586076
72,progreso,21.2833,-89.6667,38.06,43,14,2.81,MX,1681586098
73,camopi,3.1655,-52.3158,24.01,95,100,1.03,GF,1681586098
74,timiryazevskiy,56.49,84.8769,-12.47,92,19,0.07,RU,1681586098
75,saldanha,-33.0117,17.9442,15.03,77,0,5.32,ZA,1681586098
76,peace river,56.2501,-117.286,10.63,37,100,3.95,CA,1681585802
77,buraydah,26.326,43.975,17.38,83,100,8.03,SA,1681586099
78,baraut,29.1,77.2667,29.45,13,11,2.61,IN,1681586099
79,bac lieu,9.285,105.7244,27.51,76,100,1.09,VN,1681586099
80,port blair,11.6667,92.75,26.95,76,98,2.75,IN,1681585528
81,peru,40.7537,-86.0689,27.55,40,0,6.69,US,1681586072
82,powell river,49.8496,-124.5361,10.15,76,100,7.72,CA,1681586100
83,graaff-reinet,-32.2522,24.5308,15.28,35,5,0.79,ZA,1681586100
84,bjornevatn,69.6672,29.9847,3.19,41,0,5.14,NO,1681586100
85,vardo,70.3705,31.1107,-1.01,59,3,0.0,NO,1681585392
86,ahipara,-35.1667,173.1667,18.23,76,100,7.86,NZ,1681585505
87,mitu,1.1983,-70.1733,31.22,56,98,2.03,CO,1681585538
88,katsuura,35.1333,140.3,16.26,97,100,6.36,JP,1681586101
89,naze,28.3667,129.4833,17.78,77,68,4.97,JP,1681586101
90,grindavik,63.8424,-22.4338,8.97,71,75,8.75,IS,1681586101
91,merauke,-8.4667,140.3333,25.51,87,100,2.47,ID,1681586000
92,lazi,48.0667,24.2333,5.64,92,21,1.24,UA,1681586102
93,yellowknife,62.456,-114.3525,4.29,56,75,8.23,CA,1681586103
94,antalaha,-14.9003,50.2788,24.27,89,30,2.63,MG,1681586103
95,carnarvon,-24.8667,113.6333,19.11,37,0,6.91,AU,1681586103
96,college,64.8569,-147.8028,-1.78,56,20,2.57,US,1681586104
97,hilo,19.7297,-155.09,26.82,72,20,2.06,US,1681586044
98,barrow,71.2906,-156.7887,-21.99,77,0,4.12,US,1681586106
99,mount gambier,-37.8333,140.7667,10.33,86,13,3.13,AU,1681585893
100,constitucion,-35.3333,-72.4167,16.59,65,3,5.78,CL,1681586107
101,filadelfia,39.9523,-75.1638,26.73,67,20,3.6,US,1681585897
102,kavieng,-2.5744,150.7967,27.5,77,100,1.47,PG,1681586107
103,okhotsk,59.3833,143.3,-7.17,97,99,2.86,RU,1681586107
104,bluff,-46.6,168.3333,11.56,88,96,3.04,NZ,1681586108
105,urumqi,43.801,87.6005,15.53,48,57,4.0,CN,1681585542
106,fairbanks,64.8378,-147.7164,-1.77,56,20,2.57,US,1681585833
107,ulaanbaatar,47.9077,106.8832,2.07,30,40,1.0,MN,1681585840
108,arraial do cabo,-22.9661,-42.0278,25.98,78,40,5.66,BR,1681586112
109,padang,-0.9492,100.3543,25.0,87,100,1.35,ID,1681585840
110,newtonmore,57.066,-4.1192,7.9,79,100,3.96,GB,1681586113
111,castro,-24.7911,-50.0119,20.76,75,68,2.05,BR,1681586113
112,naro,37.2935,13.7936,9.35,90,100,3.68,IT,1681586113
113,iquitos,-3.7481,-73.2472,23.02,100,100,2.06,PE,1681586114
114,sambava,-14.2667,50.1667,26.03,83,44,4.43,MG,1681586115
115,buala,-8.145,159.5921,25.66,84,100,2.78,SB,1681586115
116,hare bay,48.8499,-54.0148,5.66,85,93,8.02,CA,1681586115
117,otradnoye,59.7775,30.8181,6.09,54,100,2.44,RU,1681586102
118,muisne,0.6,-80.0333,28.43,73,100,4.04,EC,1681586116
119,tadepallegudem,16.8333,81.5,30.2,44,96,2.85,IN,1681586117
120,kaniama,-7.5667,24.1833,20.5,92,82,1.17,CD,1681586118
121,tomatlan,19.9333,-105.25,36.52,21,0,5.1,MX,1681586119
122,kamal,-7.1678,112.7192,25.94,89,76,0.51,ID,1681586120
123,san policarpo,12.1791,125.5072,26.24,86,69,3.32,PH,1681585826
124,winnemucca,40.973,-117.7357,17.03,16,0,1.54,US,1681586122
125,lebedyn,50.5852,34.4849,6.19,72,100,6.56,UA,1681586126
126,mahebourg,-20.4081,57.7,25.16,88,40,1.54,MU,1681586127
127,mokhsogollokh,61.4681,128.9203,-7.01,99,100,1.41,RU,1681585855
128,mount isa,-20.7333,139.5,18.87,82,100,6.17,AU,1681586130
129,hamilton,39.1834,-84.5333,26.68,52,75,4.63,US,1681585851
130,laguna,38.421,-121.4238,20.75,59,0,3.09,US,1681586131
131,la ronge,55.1001,-105.2842,7.12,52,75,1.03,CA,1681586131
132,vestmannaeyjar,63.4427,-20.2734,7.54,76,100,10.39,IS,1681586132
133,simpang,-1.2667,104.0833,23.41,98,99,1.04,ID,1681586132
134,olafsvik,64.8945,-23.7142,5.85,69,76,4.18,IS,1681586132
135,nara,34.6851,135.8049,14.72,82,100,4.51,JP,1681586132
136,lazaro cardenas,17.9583,-102.2,29.6,53,1,5.6,MX,1681585846
137,doha,25.2867,51.5333,23.99,35,0,5.66,QA,1681586135
138,severo-kurilsk,50.6789,156.125,-1.81,84,43,3.86,RU,1681586135
139,springbok,-29.6643,17.8865,18.37,13,0,4.17,ZA,1681586136
140,tiznit,29.5833,-9.5,22.31,44,0,1.71,MA,1681586137
141,los llanos de aridane,28.6585,-17.9182,18.96,78,40,4.63,ES,1681586137
142,cabatuan,10.8794,122.486,25.24,85,89,0.51,PH,1681586138
143,petropavlovsk-kamchatskiy,53.0452,158.6483,-0.67,100,100,0.0,RU,1681586138
144,centralia,46.7162,-122.9543,11.3,78,20,1.54,US,1681586138
145,cape town,-33.9258,18.4232,17.17,74,0,5.81,ZA,1681586138
146,toamasina,-18.1667,49.3833,24.72,84,17,1.89,MG,1681586139
147,leningradskiy,69.3833,178.4167,-16.38,85,18,1.99,RU,1681586139
148,georgetown,5.4112,100.3354,29.97,80,20,4.12,MY,1681586137
149,peebles,55.6519,-3.1888,10.63,70,100,0.89,GB,1681586140
150,blagoyevo,63.3667,47.9167,-1.46,93,100,1.52,RU,1681586140
151,asau,46.4333,26.4,9.6,70,100,1.85,RO,1681586140
152,sokoni,-6.4333,39.55,27.34,78,100,3.43,TZ,1681586141
153,dingle,10.9995,122.6711,25.66,83,96,0.48,PH,1681586141
154,kaabong,3.4836,34.1492,21.43,63,3,7.75,UG,1681586141
155,sol-iletsk,51.1631,54.9918,-3.61,79,100,5.75,RU,1681586141
156,malegaon,20.55,74.5333,28.25,36,12,0.92,IN,1681586141
157,hobart,-42.8794,147.3294,13.48,95,100,4.63,AU,1681586141
158,kroya,-7.6331,109.2461,25.74,84,82,1.15,ID,1681586142
159,okha,53.5739,142.9478,-7.67,97,53,2.56,RU,1681586142
160,cabedelo,-6.9811,-34.8339,28.37,78,100,4.34,BR,1681586142
161,vankleek hill,45.5168,-74.6493,22.88,53,4,4.99,CA,1681586142
162,miquelon,47.0975,-56.3814,8.0,81,16,7.84,PM,1681586142
163,vila velha,-20.3297,-40.2925,25.53,89,75,3.09,BR,1681586142
164,bousse,12.6606,-1.8922,36.0,9,100,3.83,BF,1681586143
165,cabo san lucas,22.8909,-109.9124,27.01,56,0,0.0,MX,1681586024
166,kaitangata,-46.2817,169.8464,10.52,87,0,1.78,NZ,1681586143
167,new norfolk,-42.7826,147.0587,13.29,89,100,1.09,AU,1681586143
168,ustrzyki dolne,49.4304,22.5938,5.55,100,99,2.21,PL,1681586143
169,margate,51.3813,1.3862,10.5,83,5,1.34,GB,1681586144
170,izhma,65.0083,53.9113,-4.4,97,99,1.69,RU,1681586144
171,otane,-39.8833,176.6333,16.12,91,100,1.23,NZ,1681586144
172,butaritari,3.0707,172.7902,27.8,75,78,5.23,KI,1681586144
173,norman wells,65.282,-126.8329,-10.98,85,100,2.06,CA,1681586144
174,liverpool,53.4106,-2.9779,12.58,71,0,3.09,GB,1681586145
175,pauini,-7.7136,-66.9764,27.2,80,100,0.4,BR,1681586145
176,gamboula,4.1178,15.1393,21.57,90,71,1.63,CF,1681585890
177,haines junction,60.7522,-137.5108,1.1,75,100,1.08,CA,1681585894
178,ancud,-41.8697,-73.8203,13.49,61,0,2.75,CL,1681586145
179,isangel,-19.55,169.2667,26.43,82,100,6.12,VU,1681586145
180,ribeira grande,38.5167,-28.7,18.22,94,75,8.49,PT,1681586145
181,half moon bay,37.4636,-122.4286,18.23,67,0,5.66,US,1681585901
182,fengzhen,40.4394,113.1536,3.07,26,6,1.37,CN,1681586146
183,auchi,7.0667,6.2667,29.12,63,41,4.63,NG,1681586146
184,copiapo,-27.3667,-70.3333,19.83,27,41,3.66,CL,1681585852
185,longyearbyen,78.2186,15.6401,-0.09,93,100,3.6,SJ,1681586146
186,vostok,46.4856,135.8833,-0.95,76,100,1.68,RU,1681586147
187,yumen,40.2833,97.2,15.7,14,100,3.57,CN,1681586147
188,san carlos de bariloche,-41.1456,-71.3082,15.86,13,0,1.03,AR,1681586147
189,lompoc,34.6391,-120.4579,19.83,73,0,3.6,US,1681585976
190,jalingo,8.8833,11.3667,32.92,30,99,1.89,NG,1681586147
191,barcs,45.96,17.4586,8.32,89,100,2.18,HU,1681586147
192,makakilo city,21.3469,-158.0858,25.18,63,20,4.12,US,1681586148
193,chicama,-7.8447,-79.1469,28.3,72,100,2.12,PE,1681585903
194,calabozo,8.9242,-67.4293,38.17,25,81,3.08,VE,1681586148
195,victoria,22.2855,114.1577,26.22,80,93,1.17,HK,1681586148
196,mokrousovo,55.8103,66.7653,-3.05,41,9,2.59,RU,1681586148
197,ilulissat,69.2167,-51.1,0.01,69,20,2.06,GL,1681586148
198,marrakesh,31.6315,-8.0083,30.04,15,0,2.57,MA,1681586105
199,port elizabeth,-33.918,25.5701,16.16,87,0,3.09,ZA,1681586149
200,paamiut,61.994,-49.6678,0.65,70,8,4.89,GL,1681586149
201,beloha,-25.1667,45.05,22.1,73,58,4.35,MG,1681586149
202,assiniboia,49.6334,-105.9845,7.9,46,6,2.06,CA,1681586149
203,businga,3.3333,20.8833,24.58,83,88,1.5,CD,1681586149
204,touros,-5.1989,-35.4608,26.61,84,100,5.32,BR,1681585853
205,wasilla,61.5814,-149.4394,4.66,68,0,1.34,US,1681586071
206,zakamensk,50.3741,103.2863,-3.22,73,100,2.04,RU,1681586150
207,ornskoldsvik,63.2909,18.7153,-0.47,64,48,0.51,SE,1681586150
208,cherskiy,68.75,161.3,-18.98,94,31,1.87,RU,1681586150
209,nadvoitsy,63.8667,34.3167,-2.86,91,100,1.53,RU,1681586150
210,torbay,47.6666,-52.7314,6.53,69,20,12.35,CA,1681586151
211,srednekolymsk,67.45,153.6833,-18.35,99,50,1.87,RU,1681586151
212,marsa matruh,31.3525,27.2453,19.01,65,18,6.47,EG,1681586151
213,brokopondo,4.75,-55.1667,27.52,84,73,3.38,SR,1681586151
214,manzanillo,20.3433,-77.1167,30.39,58,100,4.16,CU,1681586151
215,mayo,38.8876,-76.5119,25.97,74,75,4.12,US,1681585993
216,hofn,64.2539,-15.2082,6.64,77,77,2.27,IS,1681586152
217,parati,-23.2178,-44.7131,23.49,93,78,2.59,BR,1681586152
218,goderich,43.7501,-81.7165,22.18,37,53,2.06,CA,1681586134
219,prince george,53.9166,-122.753,9.03,43,100,1.34,CA,1681585974
220,choszczno,53.169,15.4205,9.82,94,100,3.11,PL,1681586152
221,acapulco,16.8634,-99.8901,29.9,58,75,5.66,MX,1681586152
222,kismayo,-0.3582,42.5454,28.06,75,56,6.05,SO,1681585900
223,dikson,73.5069,80.5464,-16.17,96,100,6.0,RU,1681586153
224,ende,-8.8432,121.6623,24.89,89,98,0.5,ID,1681586153
225,klaksvik,62.2266,-6.589,7.51,83,7,5.21,FO,1681586153
226,martapura,-3.4167,114.85,24.05,100,100,2.06,ID,1681586153
227,kaeo,-35.1,173.7833,19.07,86,100,8.14,NZ,1681586154
228,gisborne,-38.6533,178.0042,15.47,72,100,3.44,NZ,1681586154
229,leshukonskoye,64.8989,45.7622,-1.73,93,99,1.55,RU,1681586154
230,narsaq,60.9167,-46.05,10.12,71,96,3.47,GL,1681586154
231,sechura,-5.5569,-80.8222,27.75,69,100,2.01,PE,1681586154
232,puri,19.8,85.85,29.29,81,100,6.26,IN,1681586154
233,vanimo,-2.6741,141.3028,25.43,88,100,2.23,PG,1681586155
234,boende,-0.2167,20.8667,23.5,86,55,1.21,CD,1681586155
235,bambanglipuro,-7.95,110.2833,24.19,90,96,1.25,ID,1681586155
236,palmer,42.1584,-72.3287,26.54,50,40,5.66,US,1681586112
237,rocha,-34.4833,-54.3333,17.67,52,9,4.28,UY,1681586155
238,mufumbwe,-13.6833,24.8,18.31,84,7,2.16,ZM,1681586155
239,ostashkov,57.1467,33.1075,2.1,54,100,3.39,RU,1681586109
240,thompson,55.7435,-97.8558,0.47,87,90,2.18,CA,1681586008
241,berlevag,70.8578,29.0864,1.97,51,6,5.66,NO,1681586156
242,havelock,34.8791,-76.9013,27.97,65,75,7.2,US,1681586104
243,ulladulla,-35.35,150.4667,18.76,62,100,3.49,AU,1681586156
244,socorro,31.6546,-106.3033,23.56,14,0,6.17,US,1681586157
245,dwarka,22.2394,68.9678,26.37,83,5,3.72,IN,1681586157
246,belyy yar,53.6039,91.3903,-6.06,63,0,4.0,RU,1681586157
247,kyshtovka,56.555,76.6271,-3.76,64,100,4.07,RU,1681586157
248,alice springs,-23.7,133.8833,8.75,100,9,3.09,AU,1681586157
249,sept-iles,50.2001,-66.3821,3.36,55,100,4.63,CA,1681586104
250,taltal,-25.4,-70.4833,21.27,67,15,3.66,CL,1681586158
251,wenling,28.3669,121.36,14.75,97,12,3.38,CN,1681586158
252,westport,41.1415,-73.3579,23.14,72,35,3.98,US,1681586133
253,doka,13.5167,35.7667,34.91,15,10,7.41,SD,1681586158
254,atikokan,48.7555,-91.6216,1.65,94,100,3.88,CA,1681586159
255,bonthe,7.5264,-12.505,28.24,79,11,4.56,SL,1681586159
256,yagodnoye,62.55,149.6667,-15.05,98,99,0.88,RU,1681586159
257,bathsheba,13.2167,-59.5167,29.34,61,40,8.75,BB,1681586159
258,oussouye,12.485,-16.5469,26.05,63,5,5.08,SN,1681586159
259,chara,56.9064,118.2631,-6.79,82,100,0.61,RU,1681586159
260,gimli,50.6336,-96.9907,-0.99,80,100,7.72,CA,1681586160
261,pevek,69.7008,170.3133,-18.05,93,98,2.89,RU,1681586160
262,imbituba,-28.24,-48.6703,24.36,81,99,2.84,BR,1681586160
263,panama city,8.9936,-79.5197,32.97,55,40,5.66,PA,1681585882
264,derzhavinsk,51.1,66.3167,-5.57,88,100,5.79,KZ,1681586161
265,lebu,-37.6167,-73.65,14.25,66,0,8.15,CL,1681586161
266,gazanjyk,39.2446,55.5154,16.36,41,0,3.2,TM,1681586161
267,casin,46.2,26.75,10.65,64,100,1.73,RO,1681586162
268,esperance,-33.8667,121.9,17.22,71,99,7.36,AU,1681586162
269,farmington,36.7281,-108.2187,13.38,16,0,5.66,US,1681585882
270,komsomolskiy,40.4272,71.7189,18.4,45,75,2.06,UZ,1681586163
271,panguna,-6.3164,155.4848,20.0,97,100,1.46,PG,1681586163
272,saint-augustin,51.226,-58.6502,8.19,43,92,4.91,CA,1681586163
273,awbari,26.5921,12.7805,23.66,16,0,4.43,LY,1681586163
274,evensk,61.95,159.2333,-9.05,72,100,6.7,RU,1681586164
275,djambala,-2.5447,14.7533,23.91,73,15,1.14,CG,1681586164
276,mitsamiouli,-11.3847,43.2844,27.22,78,27,3.19,KM,1681586164
277,chesma,53.8111,60.6533,-3.17,33,0,1.78,RU,1681586164
278,shimoda,34.6667,138.95,16.17,97,100,6.18,JP,1681586165
279,yatou,37.15,122.3833,8.71,76,100,1.08,CN,1681586165
280,necochea,-38.5473,-58.7368,14.3,51,100,2.71,AR,1681586165
281,provideniya,64.3833,-173.3,-13.33,69,100,1.15,RU,1681586165
282,avera,33.194,-82.5271,27.03,44,32,3.86,US,1681586165
283,coahuayana,18.7333,-103.6833,33.66,34,0,3.62,MX,1681586165
284,quarai,-30.3875,-56.4514,25.77,44,3,5.41,BR,1681586166
285,cayenne,4.9333,-52.3333,28.02,78,75,5.14,GF,1681586166
286,havoysund,70.9963,24.6622,2.13,58,5,2.71,NO,1681586166
287,tabou,4.423,-7.3528,27.72,81,100,3.41,CI,1681586166
288,miragoane,18.4423,-73.0876,27.92,64,98,1.03,HT,1681586166
289,neosho,36.869,-94.368,26.55,78,78,8.28,US,1681586167
290,amethi,26.15,81.8167,32.24,15,100,2.92,IN,1681586167
291,wajir,1.7471,40.0573,31.14,48,96,3.35,KE,1681586167
292,cidreira,-30.1811,-50.2056,20.39,82,99,5.82,BR,1681586168
293,port lincoln,-34.7333,135.8667,14.51,54,100,7.45,AU,1681586168
294,rio cuarto,-33.1307,-64.3499,18.52,52,75,3.09,AR,1681586168
295,sovetskiy,61.3614,63.5842,-6.28,88,9,3.11,RU,1681586168
296,kavaratti,10.5669,72.642,28.67,77,91,2.92,IN,1681586168
297,tuatapere,-46.1333,167.6833,10.29,88,100,1.93,NZ,1681586169
298,zaragoza,41.6561,-0.8773,15.25,58,75,9.26,ES,1681586169
299,helsinki,60.1695,24.9355,5.06,48,0,8.05,FI,1681585906
300,comodoro rivadavia,-45.8667,-67.5,17.92,17,0,5.66,AR,1681586169
301,hirara,24.8,125.2833,20.92,94,100,5.14,JP,1681586169
302,grand baie,-20.0182,57.5802,25.26,81,100,0.89,MU,1681586170
303,firminy,45.3873,4.2907,6.28,81,100,5.14,FR,1681586170
304,alexander city,32.944,-85.9539,27.95,46,0,3.01,US,1681586170
305,madarounfa,13.3087,7.156,32.21,12,100,2.23,NE,1681586170
306,leninskoye,41.7589,69.3864,12.69,64,28,2.05,KZ,1681586170
307,damghan,36.1683,54.348,14.94,31,37,0.81,IR,1681586171
308,pochutla,15.7432,-96.4661,32.12,37,0,5.1,MX,1681586171
309,mahanoro,-19.9,48.8,23.71,84,6,1.01,MG,1681586171
310,gari,59.4307,62.3497,-3.17,88,17,2.74,RU,1681586171
311,hithadhoo,-0.6,73.0833,28.89,69,100,3.92,MV,1681586172
312,krivosheino,57.3431,83.9261,-8.71,83,97,2.32,RU,1681586172
313,la union,-5.4,-80.75,29.27,62,100,0.74,PE,1681585873
314,ghanzi,-21.5667,21.7833,23.75,25,46,3.89,BW,1681586172
315,mamou,10.5,-12.0,31.4,27,25,1.44,GN,1681586172
316,sioux lookout,50.1001,-91.917,-1.96,93,100,3.6,CA,1681586173
317,bilma,18.6853,12.9164,31.02,9,100,2.76,NE,1681586173
318,waddan,29.1614,16.139,22.22,27,100,4.11,LY,1681586173
319,puerto del rosario,28.5004,-13.8627,19.86,77,20,4.63,ES,1681586173
320,high level,58.5169,-117.136,8.06,49,20,3.09,CA,1681586108
321,airai,-8.9266,125.4092,15.9,93,100,0.16,TL,1681586174
322,san felipe,10.3399,-68.7425,28.26,62,99,3.97,VE,1681586174
323,auki,-8.7676,160.7034,25.19,88,98,3.91,SB,1681586174
324,andrews,32.3187,-102.5457,23.59,24,0,4.63,US,1681586175
325,sitka,57.0531,-135.33,6.94,65,100,8.23,US,1681585950
326,irtyshskiy,58.3333,68.1333,-2.28,70,86,2.73,RU,1681586175
327,kutum,14.2,24.6667,28.31,17,99,0.97,SD,1681586175
328,hambantota,6.1241,81.1185,25.19,100,0,1.03,LK,1681586175
329,dzaoudzi,-12.7887,45.2699,26.94,89,0,2.06,YT,1681586176
330,san ignacio,17.1561,-89.0714,36.08,49,20,3.09,BZ,1681586176
331,brae,60.3964,-1.353,7.47,81,1,4.66,GB,1681586176
332,makinsk,52.6292,70.4169,-7.48,75,88,1.71,KZ,1681586177
333,walvis bay,-22.9575,14.5053,17.53,77,6,2.06,NA,1681586177
334,sao filipe,14.8961,-24.4956,25.15,71,0,3.0,CV,1681586177
335,visby,57.6409,18.296,7.25,61,100,3.6,SE,1681586177
336,srikakulam,18.3,83.9,28.21,79,100,3.3,IN,1681586177
337,sorong,-0.8833,131.25,26.6,82,100,1.39,ID,1681586178
338,chibuto,-24.6867,33.5306,19.01,73,10,2.19,MZ,1681586178
339,bryan,30.6744,-96.37,29.9,62,75,4.63,US,1681585891
340,porto torres,40.835,8.3972,15.1,60,31,12.39,IT,1681586178
341,santa marta,11.2408,-74.199,29.58,64,100,7.52,CO,1681585925
342,gizo,-8.103,156.8419,28.01,67,65,5.48,SB,1681586178
343,gravdal,68.1214,13.5031,4.71,76,100,2.4,NO,1681586179
344,sandpoint,48.2766,-116.5533,13.25,42,0,2.57,US,1681586136
345,mpika,-11.8343,31.4529,17.12,96,100,4.03,ZM,1681585990
346,grand gaube,-20.0064,57.6608,25.22,81,100,0.89,MU,1681586179
347,fuerte olimpo,-21.0415,-57.8738,27.59,64,100,0.81,PY,1681586180
348,guerrero negro,27.9769,-114.0611,18.16,54,1,5.93,MX,1681586180
349,olga,43.7444,135.2892,2.18,63,100,6.22,RU,1681586180
350,yaan,7.3833,8.5667,32.3,43,54,4.27,NG,1681586180
351,tripoli,32.8752,13.1875,18.34,52,0,5.17,LY,1681585931
352,talnakh,69.4865,88.3972,-30.24,85,2,1.73,RU,1681586181
353,lingao,19.9103,109.6859,24.4,89,73,0.45,CN,1681586181
354,namatanai,-3.6667,152.4333,26.27,80,100,3.38,PG,1681586181
355,vuktyl,63.8567,57.3094,-6.5,86,49,3.82,RU,1681586181
356,bridlington,54.0831,-0.1919,9.94,81,13,2.93,GB,1681586181
357,port macquarie,-31.4333,152.9167,14.38,89,41,4.92,AU,1681586181
358,port-gentil,-0.7193,8.7815,27.98,83,40,2.57,GA,1681586182
359,marawi,7.9986,124.2928,21.08,91,97,0.56,PH,1681586182
360,cloquet,46.7216,-92.4594,6.04,95,100,5.14,US,1681586182
361,coquimbo,-29.9533,-71.3436,19.85,63,0,6.69,CL,1681586047
362,kashi,39.4547,75.9797,19.75,16,62,2.54,CN,1681585906
363,the pas,53.8251,-101.2541,7.01,57,0,4.12,CA,1681586183
364,namibe,-15.1961,12.1522,24.2,74,44,3.34,AO,1681586183
365,san patricio,28.017,-97.5169,33.42,44,0,3.59,US,1681586183
366,kloulklubed,7.0419,134.2556,25.28,71,22,2.85,PW,1681586183
367,abha,18.2164,42.5053,17.9,63,0,2.06,SA,1681586183
368,zilair,52.2332,57.4392,-5.3,66,100,4.52,RU,1681586183
369,husavik,66.0449,-17.3389,3.57,80,100,1.98,IS,1681586184
370,tigil,57.8,158.6667,-0.88,78,100,4.26,RU,1681586184
371,puerto madero,14.7208,-92.4215,34.11,59,20,4.12,MX,1681586184
372,burbank,34.1808,-118.309,24.93,55,0,1.54,US,1681585961
373,banjar,-8.19,114.9675,24.91,91,55,1.86,ID,1681586184
374,praxedis guerrero,31.3667,-106.0167,22.7,13,0,5.66,MX,1681586184
375,russell,32.3502,-85.1999,28.84,44,0,0.0,US,1681586185
376,mayumba,-3.432,10.6554,26.57,81,76,2.33,GA,1681586185
377,lata,40.1629,-8.3327,15.6,86,0,2.08,PT,1681586185
378,pedasi,7.5333,-80.0333,29.01,64,12,5.45,PA,1681586185
379,kruisfontein,-34.0033,24.7314,12.16,70,5,1.8,ZA,1681586185
380,saint pete beach,27.7253,-82.7412,33.41,70,0,4.63,US,1681586185
381,kirakira,-10.4544,161.9205,23.91,92,100,0.32,SB,1681586186
382,mehamn,71.0357,27.8492,1.95,69,0,2.06,NO,1681586186
383,nanortalik,60.1432,-45.2371,2.83,74,100,2.5,GL,1681586186
384,aklavik,68.2191,-135.0107,-15.0,66,75,5.14,CA,1681586186
385,hualmay,-11.0964,-77.6139,25.97,74,99,3.64,PE,1681586187
386,san quintin,30.4833,-115.95,17.07,63,0,4.7,MX,1681586187
387,saint anthony,45.0205,-93.218,6.96,92,100,6.17,US,1681586187
388,lagoa,39.05,-27.9833,17.13,84,30,7.89,PT,1681586187
389,vao,-22.6667,167.4833,25.37,86,100,10.28,NC,1681586187
390,cuencame,24.8711,-103.6964,24.89,15,3,3.45,MX,1681586187
391,palasa,18.7667,84.4167,29.03,69,100,3.45,IN,1681586188
392,leh,34.1667,77.5833,-2.17,67,82,1.05,IN,1681586188
393,chapais,49.7834,-74.8492,14.88,75,86,2.47,CA,1681586188
394,bethel,41.3712,-73.414,25.57,88,100,1.54,US,1681586188
395,shenjiamen,29.9576,122.298,14.58,91,0,7.25,CN,1681586189
396,lyubech,51.7026,30.6569,6.68,75,100,8.39,UA,1681586189
397,trofors,65.5333,13.4063,0.7,92,100,2.23,NO,1681586189
398,baindur,13.8667,74.6333,27.45,86,0,1.23,IN,1681586189
399,magadi,12.9667,77.2333,24.45,26,7,2.82,IN,1681586189
400,letnyaya stavka,45.4306,43.4472,4.08,82,100,1.65,RU,1681586190
401,charters towers,-20.1,146.2667,21.29,95,98,3.66,AU,1681586190
402,harrison,30.4091,-89.0436,23.01,91,100,14.92,US,1681586190
403,narasannapeta,18.4167,84.05,28.05,79,100,3.25,IN,1681586190
404,salalah,17.0151,54.0924,28.01,67,0,1.24,OM,1681586190
405,bowen,-20.0167,148.2333,25.67,78,99,4.77,AU,1681586191
406,kilindoni,-7.9139,39.6668,27.53,78,100,4.75,TZ,1681586191
407,kidal,18.4411,1.4078,31.72,6,0,4.6,ML,1681586191
408,cabinda,-5.55,12.2,26.94,84,89,3.52,AO,1681586191
409,turukhansk,65.8167,87.9833,-12.74,90,100,7.88,RU,1681586191
410,ndele,8.4109,20.6473,27.12,51,97,1.51,CF,1681586192
411,amberley,39.2048,-84.428,26.29,52,75,4.63,US,1681586192
412,san juan,-31.5375,-68.5364,18.51,49,97,8.38,AR,1681586192
413,zhigansk,66.7697,123.3711,-13.62,94,100,2.31,RU,1681586192
414,jumla,29.2747,82.1838,9.1,51,0,2.16,NP,1681586192
415,miri,4.4148,114.0089,27.08,94,40,1.03,MY,1681586192
416,gundlupet,11.8,76.6833,22.87,51,23,1.79,IN,1681586193
417,las palmas,28.4204,-14.0131,18.44,77,20,4.63,ES,1681586193
418,northam,51.0333,-4.2167,9.78,80,100,1.27,GB,1681586193
419,adilabad,19.6667,78.5333,31.26,29,85,1.0,IN,1681586193
420,wilmington island,32.0036,-80.9737,28.05,56,20,4.63,US,1681586193
421,dunedin,-45.8742,170.5036,12.11,81,10,4.02,NZ,1681586194
422,raga,8.4596,25.678,25.52,66,99,2.22,SS,1681586194
423,harper,4.375,-7.7169,27.57,82,100,3.28,LR,1681586194
424,eyl,7.9803,49.8164,28.15,72,6,6.05,SO,1681586194
425,hohhot,40.8106,111.6522,0.16,40,0,3.0,CN,1681586194
426,seoul,37.5683,126.9778,9.66,93,75,2.57,KR,1681586194
427,vila do maio,15.1333,-23.2167,29.44,79,3,6.01,CV,1681586195
428,surt,31.2089,16.5887,16.58,63,7,5.15,LY,1681586195
429,cockburn town,21.4612,-71.1419,25.83,80,96,8.59,TC,1681586195
430,kosamba,21.4833,72.95,27.99,48,0,3.83,IN,1681586195
431,kasaragod,12.5,75.0,26.95,85,18,0.47,IN,1681586195
432,poum,-20.2333,164.0167,25.94,76,100,4.66,NC,1681586196
433,nexo,55.0607,15.1306,7.05,94,100,8.57,DK,1681586196
434,iralaya,15.0,-83.2333,28.76,66,25,5.34,HN,1681586196
435,igarka,67.4667,86.5833,-16.47,92,100,6.76,RU,1681586196
436,baghdad,33.3406,44.4009,17.95,59,0,2.57,IQ,1681586078
437,kapuskasing,49.4169,-82.4331,16.05,39,40,3.09,CA,1681586196
438,portland,45.5234,-122.6762,12.64,73,100,3.09,US,1681586063
439,elizabeth city,36.2946,-76.2511,28.36,50,0,7.72,US,1681586197
440,nuuk,64.1835,-51.7216,3.34,56,0,3.09,GL,1681586197
441,tessalit,20.1986,1.0114,31.24,8,1,3.95,ML,1681586197
442,santa rosa,14.3122,121.1114,27.28,91,29,1.21,PH,1681586197
443,oda,35.1833,132.5,11.88,83,40,3.7,JP,1681586170
444,sawakin,19.1059,37.3321,25.31,78,0,4.0,SD,1681586198
445,mantua,45.1667,10.7833,14.34,68,100,4.02,IT,1681586198
446,cuiluan,47.72,128.648,0.39,62,63,1.85,CN,1681586198
447,jasper,37.2001,-94.3502,26.69,63,75,5.14,US,1681586199
448,sorland,67.667,12.6934,6.92,83,100,2.79,NO,1681586199
449,lekoni,-1.5843,14.2591,26.88,71,92,2.9,GA,1681586199
450,lakes entrance,-37.8811,147.981,13.98,96,100,4.81,AU,1681586199
451,matias olimpio,-3.7158,-42.5556,31.1,62,90,1.75,BR,1681586199
452,kreminna,49.0495,38.2179,6.31,66,93,4.36,UA,1681586200
453,ukiah,39.1502,-123.2078,19.53,54,0,2.06,US,1681586200
454,phan thiet,10.9333,108.1,25.22,89,100,0.75,VN,1681586200
455,axim,4.8699,-2.2405,27.39,81,100,2.97,GH,1681586200
456,ceyranbatan,40.5408,49.6597,10.84,81,7,7.17,AZ,1681586200
457,calama,-22.4667,-68.9333,23.27,9,0,8.23,CL,1681586201
458,norilsk,69.3535,88.2027,-30.27,91,6,1.94,RU,1681586201
459,semirom,31.4167,51.5667,9.56,35,89,0.4,IR,1681586201
460,caravelas,-17.7125,-39.2481,27.84,68,9,3.76,BR,1681586201
461,novopetrovskoye,55.9928,36.4719,1.96,52,100,2.19,RU,1681586201
462,chongwe,-15.3292,28.682,18.32,65,81,2.51,ZM,1681586202
463,cosambesti,44.5593,27.4344,16.05,49,59,1.75,RO,1681586202
464,quatre cocos,-20.2078,57.7625,25.06,81,100,2.58,MU,1681586202
465,berdigestyakh,62.0989,126.6992,-3.79,96,100,2.51,RU,1681586202
466,kefamenanu,-9.4467,124.4781,22.23,95,100,0.99,ID,1681586202
467,mundo nuevo,18.7,-95.5,29.77,63,0,6.33,MX,1681586203
468,tezu,27.9167,96.1667,25.06,42,100,1.9,IN,1681586203
469,karratha,-20.7377,116.8463,22.28,27,84,7.84,AU,1681586203
470,alta floresta,-9.8756,-56.0861,32.9,62,20,1.54,BR,1681586203
471,broken hill,-31.95,141.4333,10.46,71,0,6.58,AU,1681586203
472,honningsvag,70.9821,25.9704,1.86,64,3,5.66,NO,1681586203
473,itarema,-2.9248,-39.9167,27.33,85,99,3.75,BR,1681586204
474,manzil salim,35.8567,8.4765,11.77,71,4,3.04,TN,1681586204
475,ankazoabo,-22.2833,44.5167,21.35,58,100,5.15,MG,1681586204
476,sao gabriel da cachoeira,-0.1303,-67.0892,29.02,84,100,0.3,BR,1681585923
477,luderitz,-26.6481,15.1594,20.89,43,0,4.58,NA,1681586205
478,sao gabriel,-30.3364,-54.32,23.98,53,65,5.74,BR,1681586205
479,fez,34.0372,-4.9998,23.14,26,0,2.06,MA,1681586205
480,ust-omchug,61.15,149.6333,-16.55,100,96,1.26,RU,1681585913
481,tautira,-17.7333,-149.15,26.59,78,15,5.26,PF,1681586205
482,kabanjahe,3.1001,98.4908,17.12,95,57,1.3,ID,1681586205
483,tananger,58.9333,5.6,9.6,70,0,1.54,NO,1681586206
484,kununurra,-15.7667,128.7333,24.99,100,100,0.0,AU,1681586206
485,port hawkesbury,45.6169,-61.3485,10.51,42,0,5.14,CA,1681586206
486,gat,31.61,34.7642,20.22,100,0,2.0,IL,1681586206
487,brownsville,25.9018,-97.4975,33.32,60,0,4.12,US,1681586112
488,meridian,43.6121,-116.3915,16.32,31,0,7.72,US,1681585981
489,ahuimanu,21.4447,-157.8378,25.84,71,40,3.6,US,1681586207
490,kupang,-10.1667,123.5833,25.2,85,91,0.53,ID,1681586207
491,madang,-5.2246,145.7966,24.21,92,100,3.06,PG,1681586207
492,pisco,-13.7,-76.2167,28.03,57,0,5.14,PE,1681586094
493,puerto escondido,15.85,-97.0667,30.46,66,40,7.72,MX,1681586207
494,conde,-7.2597,-34.9075,27.7,78,75,3.6,BR,1681586208
495,itacoatiara,-3.1431,-58.4442,30.49,68,99,1.68,BR,1681586191
496,mandiana,10.6333,-8.6833,35.44,23,99,2.0,GN,1681586208
497,venice,27.0998,-82.4543,32.84,71,0,5.66,US,1681586208
498,north bend,43.4065,-124.2243,13.47,66,100,5.14,US,1681586137
499,aripuana,-9.1667,-60.6333,29.36,74,70,0.4,BR,1681586209
500,tateyama,34.9833,139.8667,15.46,97,100,4.02,JP,1681586209
501,celendin,-6.8703,-78.1517,19.29,63,82,2.54,PE,1681586209
502,marsh harbour,26.5412,-77.0636,25.9,73,86,2.68,BS,1681586210
503,pangody,65.85,74.4859,-17.19,95,100,6.75,RU,1681586210
504,sisophon,13.5859,102.9737,25.4,81,100,3.78,KH,1681586210
505,mareeba,-17.0,145.4333,22.47,88,94,1.34,AU,1681586210
506,domoni,-12.2569,44.5319,25.87,84,18,0.92,KM,1681586210
507,la plata,-34.9215,-57.9545,18.34,50,59,2.52,AR,1681586210
508,nizhnevartovsk,60.9344,76.5531,-7.99,79,75,5.0,RU,1681586211
509,rodez,44.5,2.5833,9.82,53,0,6.69,FR,1681586211
510,jiayuguan,39.8167,98.3,14.16,14,6,1.29,CN,1681586211
511,oktyabrskiy,54.4815,53.471,-0.03,47,5,2.26,RU,1681586211
512,vestmanna,62.1564,-7.1664,6.51,81,75,3.09,FO,1681586211
513,bayir,37.2687,28.2167,15.29,68,100,2.72,TR,1681586212
514,birao,10.2849,22.7882,33.4,25,98,2.26,CF,1681586212
515,batemans bay,-35.7167,150.1833,18.94,60,100,4.55,AU,1681586212
516,takestan,36.0696,49.6959,10.07,51,3,3.29,IR,1681586212
517,saint george,37.1041,-113.5841,21.35,17,0,1.54,US,1681586212
518,baruun-urt,46.6806,113.2792,1.13,28,100,3.06,MN,1681586213
519,ternate,0.8,127.4,27.12,79,93,1.33,ID,1681586213
520,arys,42.4252,68.795,14.61,65,5,4.56,KZ,1681586213
521,nerchinskiy zavod,51.3088,119.61,0.96,61,100,0.91,RU,1681586213
522,jiazi,22.8779,116.067,22.44,87,0,3.07,CN,1681586213
523,buenos aires,-34.6132,-58.3772,19.41,60,82,3.28,AR,1681586100
524,gediz,39.0417,29.41,13.26,52,100,2.71,TR,1681586214
525,maarianhamina,60.0973,19.9348,2.92,75,0,1.54,AX,1681586214
526,kungurtug,50.5994,97.5228,-0.14,99,100,0.98,RU,1681586214
527,menongue,-14.6585,17.691,18.25,53,5,2.19,AO,1681586214
528,carballo,43.213,-8.691,17.09,90,1,1.21,ES,1681586215
529,sisimiut,66.9395,-53.6735,-0.92,78,5,4.36,GL,1681586215
530,ugoofaaru,5.6667,73.0,28.12,74,49,0.74,MV,1681586215
531,santa isabel do rio negro,-0.4139,-65.0192,30.04,79,100,0.92,BR,1681586215
532,halifax,44.6453,-63.5724,15.38,45,1,2.68,CA,1681585917
533,baft,29.234,56.6057,14.74,14,100,0.3,IR,1681586215
534,ricany,49.9917,14.6543,7.75,80,0,2.57,CZ,1681586216
535,yaval,21.1667,75.7,30.72,30,89,0.81,IN,1681586216
536,port hardy,50.6996,-127.4199,7.1,93,100,3.6,CA,1681586137
537,fort smith,35.3859,-94.3986,28.18,51,75,6.69,US,1681586061
538,quthing,-30.4,27.7003,11.52,28,0,0.46,LS,1681586216
539,homestead,25.4687,-80.4776,32.22,63,20,2.57,US,1681586217
540,dzhebariki-khaya,62.2167,135.8,-12.8,99,90,0.83,RU,1681586217
541,monrovia,6.3005,-10.7969,27.93,80,100,2.59,LR,1681586144
542,vredendal,-31.6683,18.5012,21.4,25,0,3.06,ZA,1681586217
543,ostrovnoy,68.0531,39.5131,-4.74,84,5,4.31,RU,1681586217
544,pitimbu,-7.4706,-34.8086,28.33,74,100,4.75,BR,1681586217
545,kodinsk,58.6881,99.1844,-17.81,98,19,0.26,RU,1681586218
546,kama,56.3051,54.0936,0.18,58,0,2.28,RU,1681586218
547,anadyr,64.75,177.4833,-16.72,71,0,5.0,RU,1681586218
548,kalabo,-14.97,22.6814,23.08,54,87,2.37,ZM,1681586218
549,kariba,-16.5167,28.8,22.82,60,7,2.15,ZW,1681586218
550,suntar,62.1444,117.6319,-4.85,91,18,3.64,RU,1681586218
551,uhlove,44.8215,33.6045,12.69,76,100,0.62,UA,1681586219
552,sankheda,22.1667,73.5833,29.18,27,0,4.17,IN,1681586219
553,persan,49.15,2.2667,13.16,81,20,4.63,FR,1681586219
554,matadi,-5.8167,13.45,25.48,94,100,2.65,CD,1681586219
555,snasa,64.2457,12.3778,5.67,91,100,2.28,NO,1681586219
556,liuzhou,24.3126,109.3892,20.2,72,1,0.41,CN,1681586219
557,preston,53.7667,-2.7167,12.6,71,100,2.18,GB,1681586219
558,barabai,-2.5833,115.3833,23.58,96,61,0.5,ID,1681586220
559,lufilufi,-13.8745,-171.5986,24.88,79,100,2.49,WS,1681586220
560,ascension,30.2169,-90.9001,19.0,100,40,1.54,US,1681586220
561,kangaatsiaq,68.3065,-53.4641,-4.07,79,7,4.52,GL,1681586220
562,kichera,55.9375,110.0997,-5.16,91,100,2.86,RU,1681586220
563,nouadhibou,20.931,-17.0347,20.99,83,40,3.6,MR,1681586220
564,barcelos,41.5388,-8.6151,17.6,85,0,3.97,PT,1681586221
565,adre,13.4667,22.2,29.75,18,100,0.26,TD,1681586221
566,newark,40.7357,-74.1724,24.67,81,100,6.69,US,1681585968
567,lerwick,60.1545,-1.1494,8.0,85,3,5.23,GB,1681586221
568,lesnoy,57.6198,63.0784,-2.73,70,77,2.49,RU,1681586222
569,maniitsoq,65.4167,-52.9,-0.5,74,12,2.95,GL,1681586222
570,wukari,7.85,9.7833,32.36,40,27,1.66,NG,1681586222
