City_ID,City,Lat,Lng,Max Temp,Humidity,Cloudiness,Wind Speed,Country,Date
0,alenquer,-1.9417,-54.7383,24.23,94,74,1.15,BR,1681256248
1,rikitea,-23.1203,-134.9692,24.76,71,100,3.0,PF,1681256248
2,bluff,-46.6,168.3333,11.56,91,100,10.09,NZ,1681256248
3,dingle,10.9995,122.6711,25.53,72,100,1.1,PH,1681256249
4,ribeira grande,38.5167,-28.7,15.43,88,100,4.92,PT,1681256249
5,atuona,-9.8,-139.0333,27.37,77,96,6.93,PF,1681256249
6,nikolskoye,59.7035,30.7861,4.95,88,100,1.5,RU,1681256250
7,nome,64.5011,-165.4064,-14.91,60,0,4.12,US,1681256250
8,beihai,21.4833,109.1,23.72,87,99,5.4,CN,1681256250
9,okha,53.5739,142.9478,-1.75,75,76,10.1,RU,1681256251
10,port alfred,-33.5906,26.891,12.88,84,100,1.79,ZA,1681256251
11,ust-barguzin,53.45,108.9833,-5.12,70,76,1.48,RU,1681256251
12,hilo,19.7297,-155.09,26.85,69,0,5.66,US,1681256251
13,georgetown,5.4112,100.3354,27.96,94,20,1.54,MY,1681256208
14,george town,5.4112,100.3354,27.96,94,20,1.54,MY,1681256252
15,batagay-alyta,67.8006,130.4114,-18.42,87,64,1.34,RU,1681256252
16,lamesa,32.7376,-101.951,28.07,23,1,5.3,US,1681256252
17,kapaa,22.0752,-159.319,26.22,72,100,7.72,US,1681256253
18,praia,14.9215,-23.5087,22.3,64,40,6.69,CV,1681256253
19,punta arenas,-53.15,-70.9167,4.06,56,40,4.12,CL,1681256253
20,lingyuan,41.24,119.4011,9.22,12,0,7.14,CN,1681256253
21,nanortalik,60.1432,-45.2371,-0.84,89,95,3.13,GL,1681256253
22,bonthe,7.5264,-12.505,24.66,85,66,1.67,SL,1681256253
23,dong hoi,17.4833,106.6,24.97,88,67,2.76,VN,1681256253
24,port blair,11.6667,92.75,26.82,77,98,2.6,IN,1681256254
25,bambous virieux,-20.3428,57.7575,25.68,94,75,2.06,MU,1681256254
26,dikson,73.5069,80.5464,-24.46,95,98,7.68,RU,1681256254
27,hamilton,39.1834,-84.5333,22.97,34,0,4.63,US,1681256093
28,nadym,65.5333,72.5167,-25.69,99,39,3.54,RU,1681256255
29,new norfolk,-42.7826,147.0587,13.73,70,55,0.45,AU,1681256255
30,albany,42.6001,-73.9662,21.23,53,100,6.13,US,1681255957
31,vaini,-21.2,-175.2,30.09,74,75,5.66,TO,1681256256
32,hermanus,-34.4187,19.2345,9.89,74,76,4.77,ZA,1681256256
33,olafsvik,64.8945,-23.7142,4.52,86,100,4.52,IS,1681256256
34,saint george,37.1041,-113.5841,31.33,14,0,9.26,US,1681256256
35,victoria,22.2855,114.1577,24.41,90,77,1.61,HK,1681256148
36,cherskiy,68.75,161.3,-18.43,88,80,1.5,RU,1681256256
37,iracoubo,5.4802,-53.2011,25.7,86,92,3.63,GF,1681256257
38,dunedin,-45.8742,170.5036,12.93,92,100,3.26,NZ,1681256257
39,severo-kurilsk,50.6789,156.125,-0.8,68,92,6.57,RU,1681256258
40,newport,51.5877,-2.9984,8.06,85,54,9.07,GB,1681256258
41,mehamn,71.0357,27.8492,0.97,75,100,5.14,NO,1681256258
42,port lincoln,-34.7333,135.8667,17.07,62,13,9.67,AU,1681256258
43,busselton,-33.65,115.3333,18.67,77,42,4.89,AU,1681256258
44,namatanai,-3.6667,152.4333,29.08,68,90,2.96,PG,1681256259
45,pontes e lacerda,-15.2261,-59.3353,23.43,93,100,1.24,BR,1681256259
46,port elizabeth,-33.918,25.5701,12.4,85,0,1.03,ZA,1681256259
47,avarua,-21.2078,-159.775,28.03,61,73,5.66,CK,1681256259
48,changping,40.2186,116.2197,6.8,15,0,0.07,CN,1681256259
49,mataura,-46.1927,168.8643,11.38,99,100,1.74,NZ,1681256259
50,kismayo,-0.3582,42.5454,27.73,78,48,5.6,SO,1681256260
51,marzuq,14.4,46.4667,21.8,51,4,2.22,YE,1681256260
52,esperance,-33.8667,121.9,18.08,67,0,5.33,AU,1681256260
53,makakilo city,21.3469,-158.0858,28.18,58,40,11.32,US,1681256260
54,chapais,49.7834,-74.8492,2.88,96,100,7.58,CA,1681256260
55,provideniya,64.3833,-173.3,-17.94,60,0,8.0,RU,1681256261
56,cayenne,4.9333,-52.3333,27.02,83,75,2.06,GF,1681256261
57,alta floresta,-9.8756,-56.0861,21.6,98,68,1.57,BR,1681256261
58,kunming,25.0389,102.7183,11.96,50,0,4.0,CN,1681256261
59,kijang,35.2442,129.2139,13.85,24,18,1.56,KR,1681256261
60,flers,48.7372,-0.5747,7.14,97,100,5.79,FR,1681256262
61,kavieng,-2.5744,150.7967,28.69,72,100,6.8,PG,1681256262
62,bredasdorp,-34.5322,20.0403,12.09,75,66,1.46,ZA,1681256262
63,ushuaia,-54.8,-68.3,1.81,80,75,8.75,AR,1681256262
64,hobart,-42.8794,147.3294,13.92,89,75,1.03,AU,1681256262
65,east london,-33.0153,27.9116,15.47,64,99,2.83,ZA,1681255964
66,riviere-au-renard,48.9957,-64.3971,3.16,97,99,3.95,CA,1681256263
67,panaba,21.2833,-88.2667,25.13,69,38,5.59,MX,1681256263
68,jamestown,42.097,-79.2353,17.8,36,0,8.75,US,1681256068
69,puerto ayora,-0.7393,-90.3518,27.53,87,66,1.79,EC,1681256263
70,arraial do cabo,-22.9661,-42.0278,24.92,73,75,5.66,BR,1681256263
71,piet retief,-27.0071,30.8132,12.1,97,99,1.27,ZA,1681256263
72,bengkulu,-3.8004,102.2655,24.34,87,100,1.38,ID,1681256264
73,constitucion,-35.3333,-72.4167,13.47,95,91,3.64,CL,1681256264
74,leshukonskoye,64.8989,45.7622,0.08,98,100,2.99,RU,1681256264
75,ilulissat,69.2167,-51.1,6.01,42,20,5.66,GL,1681256264
76,sokoni,-6.4333,39.55,26.92,82,83,1.47,TZ,1681256264
77,uyskoye,54.3775,60.0047,1.51,64,15,1.66,RU,1681256264
78,iqaluit,63.7506,-68.5145,-7.15,86,100,9.77,CA,1681256265
79,aksu,41.1231,80.2644,10.54,43,61,2.89,CN,1681256265
80,gonaives,19.45,-72.6833,27.33,66,10,2.19,HT,1681256265
81,santiago del estero,-27.7951,-64.2615,24.47,61,1,2.9,AR,1681256265
82,alofi,-19.0595,-169.9187,27.94,69,75,6.17,NU,1681256265
83,rongcheng,30.634,117.8517,17.26,70,28,3.94,CN,1681256265
84,kodiak,57.79,-152.4072,5.73,81,100,4.12,US,1681256265
85,bethel,41.3712,-73.414,22.05,20,0,4.12,US,1681256161
86,mount gambier,-37.8333,140.7667,16.82,82,79,5.25,AU,1681256266
87,maceio,-9.6658,-35.7353,24.69,88,0,2.57,BR,1681256032
88,miri,4.4148,114.0089,25.08,94,40,0.0,MY,1681256266
89,yellowknife,62.456,-114.3525,-6.71,73,100,3.6,CA,1681256266
90,aquiraz,-3.9014,-38.3911,27.32,87,100,2.64,BR,1681256266
91,snina,48.9886,22.151,7.42,84,98,3.0,SK,1681256266
92,cape town,-33.9258,18.4232,16.32,70,0,2.68,ZA,1681256267
93,lebu,-37.6167,-73.65,13.92,95,100,0.97,CL,1681256267
94,airai,-8.9266,125.4092,20.06,73,78,0.82,TL,1681256267
95,longyearbyen,78.2186,15.6401,-2.09,93,75,0.51,SJ,1681256267
96,almeria,37.1667,-2.3333,16.91,24,9,2.67,ES,1681256267
97,narsaq,60.9167,-46.05,1.12,94,100,0.36,GL,1681256267
98,clyde river,70.4692,-68.5914,-16.87,85,100,10.8,CA,1681256268
99,bibai,43.3247,141.8586,12.88,88,100,6.3,JP,1681256268
100,chuy,-33.6971,-53.4616,20.57,63,56,1.83,UY,1681256265
101,tamandare,-8.7597,-35.1047,26.25,76,100,2.79,BR,1681256268
102,oksfjord,70.2396,22.3479,2.1,85,11,4.66,NO,1681256268
103,contamana,-7.3333,-75.0167,25.83,77,84,0.95,PE,1681256268
104,parabel,58.6978,81.4825,-10.61,94,88,2.86,RU,1681256268
105,pak phanang,8.3511,100.202,26.01,81,26,1.84,TH,1681256269
106,jabinyanah,35.035,10.9081,13.89,68,2,4.98,TN,1681256269
107,upernavik,72.7868,-56.1549,-14.73,93,32,3.25,GL,1681256269
108,port hardy,50.6996,-127.4199,7.1,61,75,2.57,CA,1681256269
109,saint-philippe,-21.3585,55.7679,23.77,80,4,2.98,RE,1681256269
110,vaitape,-16.5167,-151.75,27.72,73,100,3.08,PF,1681256269
111,orumiyeh,37.5527,45.0761,9.75,87,100,2.06,IR,1681256270
112,arlit,18.7369,7.3853,26.99,19,67,3.92,NE,1681256270
113,los llanos de aridane,28.6585,-17.9182,18.86,68,58,8.75,ES,1681256270
114,chitral,35.8462,71.7858,11.65,49,0,3.19,PK,1681256270
115,poum,-20.2333,164.0167,26.34,76,1,1.59,NC,1681256270
116,mar del plata,-38.0023,-57.5575,17.83,96,100,2.24,AR,1681255990
117,omboue,-1.5746,9.2618,26.06,85,100,1.0,GA,1681256270
118,tasiilaq,65.6145,-37.6368,2.09,98,100,1.2,GL,1681256271
119,hithadhoo,-0.6,73.0833,27.94,71,19,0.32,MV,1681256271
120,paita,-5.0892,-81.1144,27.33,76,80,4.55,PE,1681256271
121,phuket,8.0,98.25,27.12,89,20,0.0,TH,1681256044
122,hauterive,46.0901,3.4459,14.42,76,98,2.81,FR,1681256271
123,talnakh,69.4865,88.3972,-24.41,97,100,2.14,RU,1681256271
124,ponta do sol,32.6667,-17.1,19.45,81,0,2.73,PT,1681256271
125,nizhniy tsasuchey,50.5167,115.1333,-1.2,38,0,2.42,RU,1681256272
126,ambanja,-13.6833,48.45,23.17,92,38,1.48,MG,1681256272
127,teeli,51.0333,90.2333,-0.6,76,84,3.83,RU,1681256272
128,sola,-13.8833,167.55,28.3,75,60,5.66,VU,1681256272
129,nemuro,43.3236,145.575,5.77,98,100,10.98,JP,1681256047
130,langsa,4.4683,97.9683,24.45,88,72,0.93,ID,1681256036
131,thompson,55.7435,-97.8558,7.09,57,75,4.63,CA,1681256210
132,aasiaat,68.7098,-52.8699,-9.33,98,43,2.69,GL,1681256273
133,port-gentil,-0.7193,8.7815,25.98,100,20,0.0,GA,1681256273
134,san cristobal,7.7669,-72.225,24.1,87,88,0.71,VE,1681256273
135,qaanaaq,77.484,-69.3632,-22.86,75,0,1.47,GL,1681256273
136,padang,-0.9492,100.3543,25.03,89,99,1.22,ID,1681256233
137,cidreira,-30.1811,-50.2056,23.17,86,26,7.08,BR,1681256273
138,tiznit,29.5833,-9.5,22.32,17,0,0.6,MA,1681256274
139,baghdad,33.3406,44.4009,19.95,88,75,8.75,IQ,1681256029
140,luanshya,-13.1367,28.4166,17.72,96,98,1.57,ZM,1681256274
141,tolaga bay,-38.3667,178.3,22.37,52,96,1.01,NZ,1681256274
142,marawi,7.9986,124.2928,24.59,70,41,0.63,PH,1681256274
143,pontianak,-0.0333,109.3333,23.99,94,40,1.03,ID,1681256274
144,ancud,-41.8697,-73.8203,12.57,94,97,0.79,CL,1681256274
145,sabang,5.8933,95.3214,27.88,74,93,0.89,ID,1681256275
146,roald,62.5833,6.1333,9.31,93,75,2.06,NO,1681256275
147,rawson,-43.3002,-65.1023,10.73,66,54,5.98,AR,1681256275
148,barrow,71.2906,-156.7887,-21.99,84,100,4.12,US,1681256275
149,allauch,43.3357,5.482,13.51,77,98,0.45,FR,1681256275
150,kaitangata,-46.2817,169.8464,12.26,97,100,2.98,NZ,1681256275
151,tuktoyaktuk,69.4541,-133.0374,-17.0,78,100,6.69,CA,1681256275
152,port augusta,-32.5,137.7667,21.2,50,7,8.02,AU,1681256276
153,vestmannaeyjar,63.4427,-20.2734,5.43,75,63,2.21,IS,1681256276
154,mahebourg,-20.4081,57.7,25.7,94,75,2.06,MU,1681256276
155,luderitz,-26.6481,15.1594,14.33,84,29,4.55,NA,1681256276
156,san patricio,28.017,-97.5169,25.3,53,15,4.38,US,1681256276
157,dabwali,29.95,74.7333,24.66,31,56,2.14,IN,1681256277
158,chokurdakh,70.6333,147.9167,-19.76,87,54,1.55,RU,1681256277
159,borba,-4.3878,-59.5939,23.89,94,84,1.15,BR,1681256277
160,intipuca,13.1969,-88.0544,33.94,62,46,3.18,SV,1681256277
161,cairns,-16.9167,145.7667,31.15,76,85,2.57,AU,1681256277
162,haputale,6.7681,80.9595,14.69,75,10,2.03,LK,1681256277
163,saint-augustin,51.226,-58.6502,0.85,99,100,1.68,CA,1681256277
164,cap malheureux,-19.9842,57.6142,25.82,80,91,0.89,MU,1681256278
165,umm lajj,25.0213,37.2685,24.16,65,100,5.31,SA,1681256278
166,kalmunai,7.4167,81.8167,25.8,82,26,1.11,LK,1681256278
167,fedorovskoye,59.6631,30.5322,4.74,83,100,1.81,RU,1681256278
168,mitsamiouli,-11.3847,43.2844,27.23,76,66,3.25,KM,1681256278
169,iglesias,39.3114,8.535,12.66,89,100,0.9,IT,1681256278
170,el tocuyo,9.7873,-69.7937,27.69,56,99,0.3,VE,1681256279
171,ossora,59.2353,163.0719,-11.22,73,91,2.83,RU,1681256279
172,motozintla,15.3667,-92.2333,21.54,61,40,0.89,MX,1681256279
173,pimentel,-6.8367,-79.9342,29.16,65,75,5.66,PE,1681256279
174,kavaratti,10.5669,72.642,28.69,74,3,3.58,IN,1681256279
175,isangel,-19.55,169.2667,30.06,84,75,0.0,VU,1681256279
176,waipawa,-41.4122,175.5153,17.87,57,29,5.02,NZ,1681256279
177,kloulklubed,7.0419,134.2556,28.28,77,97,4.34,PW,1681256280
178,tuatapere,-46.1333,167.6833,12.74,95,100,3.97,NZ,1681256280
179,butaritari,3.0707,172.7902,27.92,75,100,5.61,KI,1681256280
180,laguna,38.421,-121.4238,24.23,47,0,5.66,US,1681256280
181,ciechanow,52.8814,20.62,8.01,97,100,2.49,PL,1681256280
182,kargasok,59.0556,80.8572,-11.65,95,70,3.19,RU,1681256281
183,coquimbo,-29.9533,-71.3436,16.85,94,75,2.57,CL,1681255996
184,karonga,-9.9333,33.9333,20.73,96,63,1.36,MW,1681256281
185,kalanguy,51.0167,116.5167,-6.17,69,4,1.58,RU,1681256281
186,nouadhibou,20.931,-17.0347,18.99,94,75,2.57,MR,1681256281
187,mecca,21.4267,39.8261,28.82,33,3,0.41,SA,1681256281
188,grand gaube,-20.0064,57.6608,25.77,80,76,0.89,MU,1681256282
189,sao joaquim,-28.2939,-49.9317,12.03,89,34,1.41,BR,1681256282
190,coahuayana,18.7333,-103.6833,27.93,50,3,2.58,MX,1681256282
191,minas,-34.3759,-55.2377,19.38,70,90,3.22,UY,1681256126
192,santa isabel do rio negro,-0.4139,-65.0192,24.09,97,99,0.95,BR,1681256283
193,beringovskiy,63.05,179.3167,-16.8,84,100,6.04,RU,1681256283
194,malakal,9.5334,31.6605,31.0,39,93,3.24,SS,1681256283
195,svetlogorsk,52.6333,29.7333,8.49,67,100,3.69,BY,1681256283
196,yulara,-25.2406,130.9889,27.0,34,100,7.51,AU,1681256283
197,majene,-3.5403,118.9707,29.04,71,34,3.48,ID,1681256284
198,watertown,42.3709,-71.1828,22.16,22,0,8.75,US,1681256150
199,paamiut,61.994,-49.6678,-2.07,87,97,1.43,GL,1681256284
200,krapina,46.1608,15.8789,10.21,92,98,0.74,HR,1681256284
201,ulaangom,49.9811,92.0667,-7.89,71,53,1.53,MN,1681256284
202,challapata,-18.9,-66.7667,10.65,48,14,2.9,BO,1681256284
203,mayo,38.8876,-76.5119,24.23,54,0,3.6,US,1681256285
204,teavaro,-17.5,-149.7667,31.71,62,75,4.63,PF,1681256285
205,korsakovo,53.2677,37.3569,7.8,59,100,3.58,RU,1681256285
206,kholm-zhirkovskiy,55.5189,33.4731,6.47,72,33,1.36,RU,1681256285
207,tiksi,71.6872,128.8694,-22.61,100,100,0.44,RU,1681256285
208,luganville,-15.5333,167.1667,30.41,70,32,1.71,VU,1681256285
209,uvat,59.1433,68.8953,-3.0,93,53,2.87,RU,1681256286
210,kosai,34.7105,137.5316,21.59,63,81,5.28,JP,1681256286
211,shimoda,34.6667,138.95,19.2,76,79,8.23,JP,1681256286
212,pisco,-13.7,-76.2167,24.03,78,0,7.72,PE,1681256287
213,balabac,7.9868,117.0645,28.09,72,86,2.78,PH,1681256287
214,sao borja,-28.6606,-56.0044,23.86,53,4,2.18,BR,1681256287
215,carnarvon,-24.8667,113.6333,22.37,58,73,9.25,AU,1681256287
216,demba,-5.51,22.2667,19.61,99,100,0.78,CD,1681256288
217,leningradskiy,69.3833,178.4167,-16.56,87,97,3.89,RU,1681256288
218,bandarbeyla,9.4942,50.8122,26.68,81,22,3.99,SO,1681256288
219,san jose,37.3394,-121.895,21.4,46,75,8.75,US,1681256047
220,maningrida,-12.0667,134.2667,28.36,76,89,2.07,AU,1681256288
221,samarai,-10.6167,150.6667,28.56,73,96,1.24,PG,1681256288
222,ames,42.0347,-93.6199,26.47,33,0,8.23,US,1681255992
223,guarapari,-20.6667,-40.4975,24.38,82,90,0.85,BR,1681256003
224,baymak,52.5933,58.3225,1.75,79,4,1.83,RU,1681256289
225,ouango,4.3133,22.5552,20.51,98,100,1.99,CF,1681256289
226,faanui,-16.4833,-151.75,27.72,73,99,3.06,PF,1681256289
227,mabamba,-3.5983,30.5019,16.74,93,83,0.87,TZ,1681256289
228,fort saint james,54.4333,-124.25,4.9,76,100,1.7,CA,1681256290
229,istanbul,41.0351,28.9833,9.68,87,75,8.23,TR,1681256107
230,katsuura,35.1333,140.3,19.01,79,100,12.08,JP,1681256290
231,czersk,53.7959,17.9765,7.48,88,100,2.27,PL,1681256290
232,grindavik,63.8424,-22.4338,4.26,87,75,5.14,IS,1681256290
233,palauig,15.435,119.9045,27.32,76,87,2.01,PH,1681256290
234,umba,66.6871,34.3429,-2.74,99,94,1.31,RU,1681256290
235,champerico,14.3,-91.9167,32.3,63,5,5.23,GT,1681256291
236,saldanha,-33.0117,17.9442,10.03,79,72,4.48,ZA,1681256291
237,meridian,43.6121,-116.3915,15.53,40,20,8.23,US,1681256291
238,ambovombe,-25.1667,46.0833,21.28,91,71,2.42,MG,1681256292
239,tura,25.5198,90.2201,21.12,24,0,1.33,IN,1681256292
240,belmonte,-15.8631,-38.8828,24.38,88,45,2.08,BR,1681256292
241,husavik,66.0449,-17.3389,2.83,85,55,3.54,IS,1681256292
242,moura,38.1401,-7.4486,14.06,91,4,2.3,PT,1681256293
243,tanout,14.9709,8.8879,26.77,18,65,7.61,NE,1681256293
244,eenhana,-17.4667,16.3333,22.67,33,98,1.44,NA,1681256209
245,qinzhou,21.95,108.6167,23.05,91,100,0.82,CN,1681256293
246,karpathos,35.507,27.2132,13.98,72,13,11.32,GR,1681256294
247,cooma,-36.2333,149.1333,9.99,85,86,1.3,AU,1681256295
248,lompoc,34.6391,-120.4579,21.5,77,75,11.62,US,1681256000
249,henties bay,-22.116,14.2845,15.22,81,0,1.9,NA,1681256295
250,russell,32.3502,-85.1999,22.78,35,0,2.57,US,1681256051
251,souillac,-20.5167,57.5167,25.21,94,75,2.06,MU,1681256295
252,sao filipe,14.8961,-24.4956,22.16,70,76,3.89,CV,1681256295
253,khatanga,71.9667,102.5,-14.99,82,100,6.21,RU,1681256296
254,kununurra,-15.7667,128.7333,24.99,100,99,2.06,AU,1681256296
255,thinadhoo,0.5333,72.9333,27.77,73,27,1.39,MV,1681256296
256,takoradi,4.8845,-1.7554,25.19,91,87,1.66,GH,1681256296
257,salalah,17.0151,54.0924,28.05,74,40,2.57,OM,1681256166
258,torbay,47.6666,-52.7314,4.43,49,75,4.12,CA,1681256153
259,lata,40.1629,-8.3327,11.71,91,73,0.94,PT,1681256297
260,udachnyy,66.4167,112.4,-9.75,51,100,12.16,RU,1681256297
261,roswell,34.0232,-84.3616,21.88,28,0,4.63,US,1681256297
262,fortuna,40.5982,-124.1573,13.29,66,5,2.24,US,1681256298
263,dakar,14.6937,-17.4441,21.07,88,0,5.14,SN,1681256298
264,broome,42.2506,-75.833,20.21,27,75,5.14,US,1681256250
265,pangnirtung,66.1451,-65.7125,-11.99,84,88,1.33,CA,1681256298
266,ahipara,-35.1667,173.1667,19.09,85,92,7.39,NZ,1681256298
267,houma,29.5958,-90.7195,20.0,87,100,4.63,US,1681256299
268,codrington,-38.2667,141.9667,17.16,81,100,7.45,AU,1681256299
269,zeya,53.75,127.2667,1.22,76,75,1.51,RU,1681256299
270,otradnoye,59.7775,30.8181,5.05,90,100,1.64,RU,1681256300
271,japura,-0.3167,102.35,23.72,96,73,0.35,ID,1681256300
272,oyama,36.3,139.8,19.77,43,100,4.36,JP,1681256300
273,guerrero negro,27.9769,-114.0611,17.81,67,0,9.12,MX,1681256300
274,camacha,33.0833,-16.3333,15.68,77,40,2.06,PT,1681256301
275,ismailia,30.6043,32.2723,14.0,72,88,5.87,EG,1681256301
276,nizhniy odes,63.6445,54.856,-0.66,98,100,2.94,RU,1681256301
277,gdansk,54.3521,18.6464,8.28,97,75,2.06,PL,1681256301
278,hasaki,35.7333,140.8333,19.56,74,100,12.59,JP,1681256301
279,zilupe,56.3862,28.1217,6.92,77,68,1.87,LV,1681256302
280,sinjai,-5.1241,120.253,27.52,72,54,1.32,ID,1681256302
281,el alto,-4.2714,-81.2147,27.81,75,89,3.04,PE,1681256302
282,najran,17.4924,44.1277,22.36,42,67,1.18,SA,1681256302
283,evansville,37.9748,-87.5558,23.03,27,0,3.09,US,1681256278
284,saint anthony,45.0205,-93.218,26.96,24,0,7.72,US,1681256303
285,kumbo,6.2,10.6667,16.26,86,100,1.67,CM,1681256303
286,north bend,43.4065,-124.2243,12.91,66,0,6.69,US,1681256149
287,delta del tigre,-34.7633,-56.3853,23.83,68,75,2.64,UY,1681256303
288,leander,30.5788,-97.8531,23.38,52,40,3.13,US,1681256303
289,ixtapa,20.7,-105.2,26.24,73,20,6.17,MX,1681256303
290,sisimiut,66.9395,-53.6735,-5.79,88,10,2.83,GL,1681256303
291,marsa matruh,31.3525,27.2453,12.11,82,40,6.69,EG,1681256304
292,sakakah,29.9697,40.2064,17.76,61,70,5.88,SA,1681256304
293,sinnamary,5.3833,-52.95,26.67,81,99,4.99,GF,1681256304
294,comodoro rivadavia,-45.8667,-67.5,6.92,49,0,3.09,AR,1681256305
295,hambantota,6.1241,81.1185,22.96,87,15,2.4,LK,1681256305
296,porterville,36.0652,-119.0168,24.67,56,0,2.57,US,1681256305
297,general roca,-39.0333,-67.5833,16.46,49,20,7.15,AR,1681256306
298,nantucket,41.2835,-70.0995,13.41,74,0,9.26,US,1681256306
299,lewistown,40.5992,-77.5714,21.41,22,0,3.09,US,1681256299
300,crawfordsville,40.0411,-86.8745,23.62,28,20,5.14,US,1681256306
301,ust-omchug,61.15,149.6333,-13.89,79,71,2.13,RU,1681256306
302,padina,45.1181,20.7272,11.8,83,98,4.11,RS,1681256306
303,goma,-1.6792,29.2228,16.78,87,96,1.5,CD,1681256306
304,hirara,24.8,125.2833,22.92,100,40,3.6,JP,1681256307
305,praia da vitoria,38.7333,-27.0667,15.98,94,75,2.36,PT,1681256307
306,kurchum,48.5722,83.6542,1.6,97,96,4.29,KZ,1681256307
307,kruisfontein,-34.0033,24.7314,9.94,81,99,2.12,ZA,1681256307
308,lamar,33.6668,-95.5836,22.95,42,0,4.12,US,1681256307
309,idanre,7.1127,5.1159,22.73,98,99,1.2,NG,1681256307
310,deputatskiy,69.3,139.9,-19.43,95,100,1.48,RU,1681256307
311,kifri,34.6959,44.9661,18.65,75,100,7.6,IQ,1681256308
312,pittsburg,38.028,-121.8847,22.01,43,0,4.63,US,1681256308
313,teacapan,22.55,-105.75,27.76,33,36,3.91,MX,1681256308
314,espirito santo do pinhal,-22.1158,-46.6828,19.2,79,64,1.36,BR,1681256309
315,saskylakh,71.9167,114.0833,-21.69,99,93,2.73,RU,1681256309
316,erzin,36.9559,36.2,9.7,91,32,0.77,TR,1681256309
317,kangaatsiaq,68.3065,-53.4641,-4.41,90,17,2.51,GL,1681256309
318,ostrovnoy,68.0531,39.5131,-2.29,78,100,7.21,RU,1681256309
319,srednekolymsk,67.45,153.6833,-17.12,87,90,2.29,RU,1681256310
320,san rafael,-34.6177,-68.3301,20.42,51,21,5.78,AR,1681256030
321,luanda,-8.8368,13.2343,28.0,78,75,3.09,AO,1681256073
322,shikarpur,27.9571,68.6379,25.2,31,1,0.79,PK,1681256310
323,vardo,70.3705,31.1107,0.99,69,75,7.72,NO,1681256311
324,tilichiki,60.4667,166.1,-14.43,80,72,4.85,RU,1681256311
325,san andres,12.5847,-81.7006,28.01,74,40,4.63,CO,1681256038
326,matagami,49.7502,-77.6328,4.06,75,100,5.66,CA,1681256311
327,yatou,37.15,122.3833,11.05,27,0,2.79,CN,1681256312
328,bereznik,62.8551,42.7072,0.62,98,96,1.84,RU,1681256312
329,carutapera,-1.195,-46.02,27.89,72,98,2.2,BR,1681256312
330,kapiri mposhi,-13.9652,28.6809,16.89,95,95,2.04,ZM,1681256313
331,pundaguitan,6.3711,126.1689,27.52,78,75,2.68,PH,1681256313
332,bilibino,68.0546,166.4372,-16.96,70,100,0.47,RU,1681256313
333,faya,18.3851,42.4509,16.06,54,0,0.22,SA,1681256313
334,sorong,-0.8833,131.25,27.85,79,99,1.98,ID,1681256314
335,isla mujeres,21.2311,-86.731,27.03,71,57,3.59,MX,1681256314
336,sembe,1.6481,14.5806,20.57,98,100,1.18,CG,1681256314
337,ijui,-28.3878,-53.9147,25.01,46,68,2.43,BR,1681256314
338,coihaique,-45.5752,-72.0662,9.97,62,0,2.57,CL,1681256314
339,geraldton,-28.7667,114.6,13.23,94,0,3.6,AU,1681256314
340,caravelas,-17.7125,-39.2481,23.24,94,98,3.37,BR,1681256315
341,micheweni,-4.9667,39.8333,28.37,75,33,2.79,TZ,1681256315
342,tatishchevo,51.6703,45.5953,8.04,48,64,3.02,RU,1681256315
343,stony plain,53.5334,-114.0021,2.08,94,100,3.6,CA,1681256254
344,araouane,18.9048,-3.5265,26.13,10,99,4.03,ML,1681256315
345,jalu,29.0331,21.5482,13.85,66,1,5.72,LY,1681256315
346,oum hadjer,13.2954,19.6966,30.02,18,93,8.34,TD,1681256315
347,urdoma,61.7533,48.5442,0.24,91,100,2.2,RU,1681256316
348,katherine,-14.4667,132.2667,28.18,78,40,1.03,AU,1681256316
349,marfino,55.7028,37.3822,8.94,87,0,1.0,RU,1681256316
350,belaya gora,68.5333,146.4167,-16.57,89,80,1.46,RU,1681256316
351,norman wells,65.282,-126.8329,-0.98,55,40,4.12,CA,1681256316
352,bonavista,48.6499,-53.1147,0.86,77,79,6.65,CA,1681256316
353,saint-paul,-21.0096,55.2707,26.05,94,9,0.45,RE,1681256317
354,atbasar,51.8,68.3333,0.47,64,7,3.32,KZ,1681256317
355,acapulco,16.8634,-99.8901,29.9,58,40,4.63,MX,1681256107
356,naze,28.3667,129.4833,20.51,84,70,2.07,JP,1681256317
357,awassa,7.05,38.4667,16.96,76,91,1.73,ET,1681256317
358,keti bandar,24.1447,67.4497,26.06,79,76,7.24,PK,1681256317
359,iquique,-20.2208,-70.1431,22.02,77,25,1.74,CL,1681256317
360,san quintin,30.4833,-115.95,16.52,70,1,6.11,MX,1681256318
361,atambua,-9.1061,124.8925,25.95,78,57,1.0,ID,1681256318
362,taltal,-25.4,-70.4833,18.8,84,51,3.9,CL,1681256318
363,puerto quijarro,-17.7833,-57.7667,24.24,86,100,1.33,BO,1681256318
364,koubia,11.5833,-11.9,23.11,52,63,0.33,GN,1681256318
365,nyimba,-14.5566,30.8149,20.05,93,100,3.95,ZM,1681256055
366,sanski most,44.7653,16.6656,8.47,86,100,0.84,BA,1681256319
367,goderich,43.7501,-81.7165,13.18,54,100,7.2,CA,1681256289
368,borogontsy,62.6683,131.1683,-6.38,90,100,0.68,RU,1681256319
369,tadine,-21.55,167.8833,26.67,78,6,3.78,NC,1681256319
370,cockburn town,21.4612,-71.1419,25.54,81,1,5.5,TC,1681256319
371,san jeronimo,-11.9472,-75.2829,9.54,88,59,2.3,PE,1681256320
372,kyzyl-suu,42.3414,78.0056,2.24,71,95,2.64,KG,1681256320
373,arefu,45.3333,24.6,4.02,94,89,2.95,RO,1681256320
374,castro,-24.7911,-50.0119,15.47,79,6,1.6,BR,1681256320
375,charters towers,-20.1,146.2667,27.64,57,100,0.33,AU,1681256320
376,rundu,-17.9333,19.7667,19.6,54,71,2.6,NA,1681256320
377,pitimbu,-7.4706,-34.8086,26.33,85,97,2.54,BR,1681256321
378,sol-iletsk,51.1631,54.9918,6.55,55,35,1.72,RU,1681256321
379,pecos,31.4229,-103.4932,30.05,13,0,5.66,US,1681256321
380,iwanai,42.9744,140.5089,6.37,91,100,7.23,JP,1681256321
381,tefe,-3.3542,-64.7114,24.06,100,20,1.03,BR,1681256321
382,kasempa,-13.4584,25.8338,16.18,96,93,1.75,ZM,1681256321
383,mezhevoy,55.1711,58.7814,1.25,67,33,2.87,RU,1681256322
384,guanica,17.9716,-66.908,26.73,82,57,3.26,PR,1681256322
385,ballina,-28.8667,153.5667,23.16,40,100,0.91,AU,1681256322
386,huitzo,19.9667,-102.0667,27.44,17,6,4.6,MX,1681256322
387,lanzhou,36.0564,103.7922,12.97,33,30,0.91,CN,1681256322
388,sorab,14.3833,75.1,20.4,92,7,0.98,IN,1681256323
389,luena,-11.7833,19.9167,18.1,94,89,2.06,AO,1681256323
390,damietta,31.4165,31.8133,14.94,75,73,4.27,EG,1681256323
391,nokha,27.6,73.4167,25.29,32,68,0.51,IN,1681256323
392,asau,46.4333,26.4,6.51,96,100,2.09,RO,1681256323
393,qaqortoq,60.7167,-46.0333,-0.76,89,100,1.29,GL,1681256323
394,buraydah,26.326,43.975,20.25,60,97,6.25,SA,1681256324
395,hudson bay,52.85,-102.3842,5.52,99,100,4.04,CA,1681256324
396,kataysk,56.289,62.5841,0.78,63,46,3.31,RU,1681256324
397,bubaque,11.2833,-15.8333,25.21,67,16,5.42,GW,1681256324
398,lorengau,-2.0226,147.2712,27.07,80,94,2.72,PG,1681256324
399,ketchikan,55.3422,-131.6461,8.26,61,40,4.63,US,1681256325
400,quelimane,-17.8786,36.8883,26.97,89,75,4.12,MZ,1681256325
401,turukhansk,65.8167,87.9833,-21.98,99,100,2.36,RU,1681256325
402,nowa sol,51.8033,15.717,4.4,94,21,2.9,PL,1681256325
403,havelock,34.8791,-76.9013,17.0,62,0,3.09,US,1681256325
404,mount isa,-20.7333,139.5,25.87,36,77,0.0,AU,1681256325
405,lufilufi,-13.8745,-171.5986,31.88,72,13,6.02,WS,1681256325
406,dalnerechensk,45.9339,133.7225,4.39,30,79,9.59,RU,1681256326
407,sarahan,31.5167,77.8,4.9,54,92,4.52,IN,1681256326
408,bafq,31.6128,55.4107,21.31,25,35,2.67,IR,1681256326
409,wajima,37.4,136.9,8.38,100,75,4.12,JP,1681256293
410,khovu-aksy,51.1333,93.6,-4.38,89,100,1.13,RU,1681256326
411,mildura,-34.2,142.15,20.04,76,0,10.98,AU,1681256326
412,hofn,64.2539,-15.2082,1.5,81,91,4.46,IS,1681256326
413,nadadores,27.05,-101.6,29.02,35,51,8.69,MX,1681256327
414,pacific grove,36.6177,-121.9166,20.5,68,0,7.15,US,1681256327
415,melur,10.05,78.3333,24.5,80,7,0.98,IN,1681256327
416,lima,-12.0432,-77.0282,26.06,75,40,5.14,PE,1681256243
417,izhma,65.0083,53.9113,0.24,97,100,2.88,RU,1681256327
418,komsomolskiy,40.4272,71.7189,12.4,82,100,2.06,UZ,1681256327
419,lively,46.4334,-81.1498,13.51,86,100,2.71,CA,1681256328
420,sabha,27.0377,14.4283,14.91,25,8,5.26,LY,1681256328
421,nagaur,27.2,73.7333,25.41,33,10,3.2,IN,1681256328
422,ashqelon,31.6693,34.5715,13.94,77,21,8.14,IL,1681256328
423,cabo san lucas,22.8909,-109.9124,33.12,25,0,5.14,MX,1681256328
424,parana,-31.732,-60.5238,26.95,86,98,1.52,AR,1681256328
425,kaoma,-14.7833,24.8,16.63,95,71,2.23,ZM,1681256329
426,letterkenny,54.95,-7.7333,3.89,74,90,7.6,IE,1681256329
427,barcelos,41.5388,-8.6151,14.91,96,80,2.34,PT,1681256329
428,adrar,20.5022,-10.0711,23.78,52,100,1.69,MR,1681256329
429,hami,42.8,93.45,13.16,32,100,5.16,CN,1681256329
430,necochea,-38.5473,-58.7368,15.8,88,91,4.94,AR,1681256329
431,westport,41.1415,-73.3579,22.75,36,0,5.14,US,1681256280
432,kikwit,-5.041,18.8162,21.74,98,100,3.07,CD,1681256330
433,shizilu,35.1711,118.8289,12.76,30,0,2.47,CN,1681256330
434,brigantine,39.4101,-74.3646,18.44,72,89,5.36,US,1681256330
435,mogadishu,2.0371,45.3438,27.54,82,25,5.24,SO,1681256330
436,baykit,61.67,96.37,-13.88,91,100,4.97,RU,1681256330
437,vila franca do campo,37.7167,-25.4333,16.23,92,47,2.67,PT,1681256330
438,melilla,35.2937,-2.9383,23.21,18,0,3.09,ES,1681256331
439,katete,-0.7818,29.7544,16.94,80,100,1.51,UG,1681256331
440,brejo santo,-7.4933,-38.9872,27.13,73,46,0.74,BR,1681256331
441,riohacha,11.5444,-72.9072,27.06,83,0,4.12,CO,1681256331
442,batemans bay,-35.7167,150.1833,15.61,52,84,3.68,AU,1681256331
443,alice,27.7523,-98.0697,25.94,42,0,5.14,US,1681256258
444,mnogovershinnyy,53.9353,139.9242,-4.59,74,92,6.27,RU,1681256331
445,hanzhong,33.0728,107.0303,18.92,61,91,0.94,CN,1681256332
446,hervey bay,-25.2986,152.8535,24.45,47,34,3.03,AU,1681256332
447,arvika,59.6553,12.5852,5.34,93,100,1.93,SE,1681256332
448,bacolod,10.6667,122.95,26.69,70,97,1.0,PH,1681256332
449,tumbes,-3.5667,-80.4414,27.97,78,75,2.57,PE,1681256108
450,igarka,67.4667,86.5833,-31.55,99,48,2.45,RU,1681256332
451,floriano,-6.7669,-43.0225,26.39,66,74,1.88,BR,1681256333
452,shitanjing,39.2342,106.3439,9.97,18,92,2.42,CN,1681256333
453,senanga,-16.1167,23.2667,18.67,88,87,1.85,ZM,1681256333
454,west norriton,40.1296,-75.3785,21.77,30,0,4.63,US,1681256333
455,ryotsu,38.0833,138.4333,10.59,93,100,2.22,JP,1681256333
456,niteroi,-22.8833,-43.1036,24.78,76,20,5.14,BR,1681256097
457,mayya,61.7333,130.2811,-10.38,89,100,1.95,RU,1681256334
458,meulaboh,4.1363,96.1285,24.37,90,81,1.31,ID,1681256334
459,cozumel,20.5083,-86.9458,29.04,66,20,4.63,MX,1681256294
460,okhotsk,59.3833,143.3,-7.23,72,23,1.8,RU,1681256334
461,vestmanna,62.1564,-7.1664,2.51,87,20,0.51,FO,1681256334
462,leh,34.1667,77.5833,-7.81,66,9,3.27,IN,1681256334
463,manuk mangkaw,4.8,119.85,27.92,76,30,5.11,PH,1681256335
464,chipata,-13.6333,32.65,17.54,94,95,1.75,ZM,1681256335
465,rio grande city,26.3798,-98.8203,25.62,49,94,3.51,US,1681256335
466,paoua,7.2427,16.4406,26.18,57,100,3.68,CF,1681256335
467,ojinaga,29.5667,-104.4167,30.53,21,0,3.6,MX,1681256335
468,tahe,52.3333,124.7333,-1.95,84,100,3.56,CN,1681256335
469,vila velha,-20.3297,-40.2925,24.41,88,75,3.09,BR,1681256335
470,kampong thum,12.7111,104.8887,28.44,71,98,4.82,KH,1681256336
471,high level,58.5169,-117.136,8.06,31,75,4.12,CA,1681256101
472,zhigansk,66.7697,123.3711,-19.18,91,18,3.46,RU,1681256336
473,sauda,59.6506,6.3542,7.05,98,100,2.01,NO,1681256336
474,qostanay,53.1667,63.5833,0.16,80,0,5.0,KZ,1681256284
475,tautira,-17.7333,-149.15,27.35,72,100,2.1,PF,1681256336
476,finschhafen,-6.6024,147.8681,31.05,61,90,2.11,PG,1681256337
477,beaverlodge,55.2166,-119.4361,7.64,55,100,1.9,CA,1681256337
478,olinda,-8.0089,-34.8553,26.85,74,40,3.6,BR,1681256337
479,kangshan,28.8812,116.4311,20.22,86,31,3.25,CN,1681256337
480,pochutla,15.7432,-96.4661,28.9,50,54,3.0,MX,1681256337
481,ouadda,8.0777,22.4007,23.49,73,99,2.75,CF,1681256337
482,dabou,5.3256,-4.3769,26.37,87,67,3.73,CI,1681256337
483,yaring,6.8662,101.3689,26.43,87,73,3.51,TH,1681256338
484,porto santo,33.072,-16.3415,17.21,77,40,2.06,PT,1681256338
485,ouallam,14.3188,2.0866,30.71,14,18,5.19,NE,1681256338
486,karratha,-20.7377,116.8463,30.24,48,98,5.88,AU,1681256338
487,zilair,52.2332,57.4392,0.77,76,2,0.13,RU,1681256339
488,galesong,-5.3166,119.3661,25.01,79,34,3.24,ID,1681256339
489,inhambane,-23.865,35.3833,20.96,95,97,3.23,MZ,1681256339
490,sao sebastiao,-23.76,-45.4097,21.56,88,14,3.36,BR,1681256339
491,saurimo,-9.6608,20.3916,17.75,96,91,1.43,AO,1681256339
492,talcahuano,-36.7167,-73.1167,14.82,94,75,2.06,CL,1681256340
493,ternate,0.8,127.4,27.67,76,31,2.26,ID,1681256340
494,ust-kulom,61.6864,53.6902,-0.32,96,100,2.57,RU,1681256340
495,indergarh,26.9352,79.6724,25.59,19,2,2.56,IN,1681256340
496,sungairaya,0.7,108.9,26.36,84,81,1.72,ID,1681256340
497,lawrenceburg,38.0373,-84.8966,23.32,25,0,3.6,US,1681256340
498,varhaug,58.6147,5.6457,6.61,91,78,6.79,NO,1681256341
499,jeremie,18.65,-74.1167,25.61,78,32,1.03,HT,1681256341
500,sao miguel do araguaia,-13.275,-50.1628,23.25,85,100,1.44,BR,1681256341
501,pevek,69.7008,170.3133,-24.53,93,90,1.49,RU,1681256341
502,sal rei,16.1833,-22.9167,21.54,72,95,4.13,CV,1681256342
503,jensen beach,27.2545,-80.2298,23.38,68,75,10.29,US,1681256342
504,berea,41.3662,-81.8543,22.49,20,75,7.72,US,1681256342
505,wilmington,34.2257,-77.9447,17.95,60,0,0.89,US,1681256250
506,sept-iles,50.2001,-66.3821,5.0,95,100,2.57,CA,1681256189
507,penzance,50.1186,-5.5371,7.09,64,91,13.63,GB,1681256342
508,elko,41.0002,-115.5012,20.01,28,95,8.05,US,1681256343
509,sehithwa,-20.4667,22.7167,20.42,45,50,2.7,BW,1681256343
510,maragogi,-9.0122,-35.2225,25.05,82,99,1.6,BR,1681256343
511,tual,-5.6667,132.75,28.08,77,98,3.15,ID,1681256343
512,macas,-2.3167,-78.1167,20.86,94,40,2.57,EC,1681256344
513,tortoli,39.9256,9.6572,14.9,72,0,3.09,IT,1681256344
514,kralendijk,12.15,-68.2667,26.99,78,75,8.23,BQ,1681256344
515,urumqi,43.801,87.6005,5.53,76,100,2.0,CN,1681256080
516,vostok,46.4856,135.8833,-2.13,74,100,6.72,RU,1681256344
517,bambanglipuro,-7.95,110.2833,25.94,84,99,1.47,ID,1681256345
518,soe,-9.8607,124.284,23.17,77,99,1.18,ID,1681256345
519,barranca,-10.75,-77.7667,24.5,79,43,3.67,PE,1681256345
520,atocha,-20.9333,-66.2333,12.11,35,24,3.63,BO,1681256345
521,aklavik,68.2191,-135.0107,-13.0,61,20,1.54,CA,1681256346
522,colares,38.7992,-9.4469,16.53,85,13,7.15,PT,1681256346
523,maiduguri,11.8464,13.1603,29.16,22,100,4.83,NG,1681256346
524,travagliato,45.5191,10.0805,12.86,52,40,3.13,IT,1681256347
525,camopi,3.1655,-52.3158,22.85,98,96,0.83,GF,1681256347
526,mahdasht,35.7299,50.8111,21.12,27,40,2.06,IR,1681256348
527,olavarria,-36.8927,-60.3225,16.42,93,79,3.62,AR,1681256348
528,nabire,-3.3667,135.4833,24.91,91,100,1.06,ID,1681256348
529,traralgon,-38.1833,146.5333,12.36,97,100,1.25,AU,1681256348
530,darapidap,17.2131,120.4114,26.03,82,100,1.87,PH,1681256348
531,yuancheng,36.652,107.7896,11.78,46,80,3.21,CN,1681256349
532,huarmey,-10.0681,-78.1522,25.21,81,33,3.75,PE,1681256349
533,nouakchott,18.0858,-15.9785,19.96,81,94,4.05,MR,1681256349
534,damara,4.9608,18.7035,22.36,82,99,1.66,CF,1681256349
535,nagapattinam,10.7667,79.8333,24.01,86,6,0.57,IN,1681256349
536,kampene,-3.6,26.6667,18.75,99,94,0.43,CD,1681256350
537,bairiki,1.3292,172.9752,30.0,74,20,2.06,KI,1681256350
538,kahului,20.8947,-156.47,28.01,64,20,9.77,US,1681256237
539,west wendover,40.7391,-114.0733,25.56,14,0,8.75,US,1681256350
540,kieta,-6.2167,155.6333,27.5,80,98,1.72,PG,1681256351
541,soure,-0.7167,-48.5233,23.99,92,100,1.28,BR,1681256346
542,hualmay,-11.0964,-77.6139,24.75,80,29,4.3,PE,1681256351
543,shelburne,44.0787,-80.2041,18.42,67,100,8.29,CA,1681256351
544,maues,-3.3836,-57.7186,24.07,97,100,1.29,BR,1681256322
545,bratsk,56.1325,101.6142,-3.73,77,100,4.98,RU,1681256352
546,sioux lookout,50.1001,-91.917,17.04,27,40,2.57,CA,1681256352
547,lodja,-3.4833,23.4333,19.65,100,100,0.9,CD,1681256352
548,aykhal,66.0,111.5,-10.08,90,100,14.86,RU,1681256353
549,kutum,14.2,24.6667,24.63,20,100,7.97,SD,1681256353
550,kourou,5.1552,-52.6478,27.03,89,99,3.04,GF,1681256353
551,balikpapan,-1.2675,116.8289,25.55,94,20,1.54,ID,1681256353
552,hun,29.1268,15.9477,11.57,60,0,2.12,LY,1681256354
553,semaria,24.3073,79.9718,26.54,15,0,0.48,IN,1681256354
554,maniitsoq,65.4167,-52.9,-1.8,81,7,2.44,GL,1681256354
555,ankang,32.68,109.0172,17.36,46,100,1.37,CN,1681256354
556,lira,2.235,32.9097,19.25,77,67,1.0,UG,1681256355
557,taonan,45.3333,122.7833,3.73,23,0,9.16,CN,1681256355
558,shache,38.4167,77.2406,13.07,18,2,3.03,CN,1681256355
559,tazmalt,36.3868,4.3989,17.75,41,7,1.99,DZ,1681256355
560,mackay,-21.15,149.2,30.93,71,48,0.59,AU,1681256355
561,imeni poliny osipenko,52.4201,136.4853,-4.32,94,100,11.02,RU,1681256356
562,pinawa,50.1489,-95.8811,13.37,89,46,4.49,CA,1681256356
563,aljezur,37.3191,-8.8033,15.31,89,2,5.57,PT,1681256356
564,bathsheba,13.2167,-59.5167,26.34,73,20,6.17,BB,1681256356
565,itoman,26.1247,127.6694,23.21,88,40,3.6,JP,1681256357
566,dibulla,11.2725,-73.3091,25.81,87,100,2.76,CO,1681256357
567,biryusinsk,55.9634,97.8235,-4.55,71,65,5.31,RU,1681256357
568,honiara,-9.4333,159.95,28.69,69,61,2.59,SB,1681256357
569,sinnar,13.5691,33.5672,33.46,13,100,4.78,SD,1681256357
570,cururupu,-1.8283,-44.8683,24.04,92,74,1.53,BR,1681256357
571,rio grande,-32.035,-52.0986,22.06,81,3,2.85,BR,1681256357
572,taoudenni,22.6783,-3.9836,25.69,7,98,3.76,ML,1681256358
573,mutuipe,-13.2286,-39.5047,21.21,99,45,1.42,BR,1681256358
574,college,64.8569,-147.8028,-8.85,77,100,0.0,US,1681256358
575,anadyr,64.75,177.4833,-17.72,65,0,0.0,RU,1681256359
576,nakhon thai,17.1006,100.8374,28.29,57,9,0.48,TH,1681256359
577,ledyard,41.4398,-72.0142,19.67,45,0,5.14,US,1681256359
578,nara,34.6851,135.8049,18.05,49,92,2.75,JP,1681256359
579,manokwari,-0.8667,134.0833,26.89,80,100,1.54,ID,1681256360
