City_ID,City,Lat,Lng,Max Temp,Humidity,Cloudiness,Wind Speed,Country,Date
0,buala,-8.145,159.5921,29.29,60,89,0.33,SB,1681783475
1,praia,14.9215,-23.5087,23.3,73,20,8.75,CV,1681783476
2,krasnoselkup,65.7,82.4667,-13.21,85,100,2.56,RU,1681783476
3,busselton,-33.65,115.3333,17.85,50,0,4.84,AU,1681783155
4,pangnirtung,66.1451,-65.7125,-19.51,89,69,3.11,CA,1681783476
5,tasiilaq,65.6145,-37.6368,0.65,98,100,7.75,GL,1681783146
6,qaanaaq,77.484,-69.3632,-17.33,71,0,2.49,GL,1681783156
7,cabo san lucas,22.8909,-109.9124,25.34,67,4,4.89,MX,1681782910
8,norman wells,65.282,-126.8329,-7.98,67,100,5.66,CA,1681783187
9,vaini,-21.2,-175.2,26.09,89,75,4.12,TO,1681783166
10,ushuaia,-54.8,-68.3,3.81,81,100,1.54,AR,1681783049
11,komsomolskiy,40.4272,71.7189,10.4,50,75,3.09,UZ,1681783477
12,atuona,-9.8,-139.0333,27.57,79,14,7.68,PF,1681783154
13,saskylakh,71.9167,114.0833,-15.16,95,100,2.41,RU,1681783153
14,albany,42.6001,-73.9662,10.4,90,80,1.2,US,1681783148
15,oistins,13.0667,-59.5333,26.05,78,20,10.29,BB,1681783353
16,aljezur,37.3191,-8.8033,14.27,61,0,2.57,PT,1681783294
17,east northport,40.8768,-73.3246,16.58,62,100,2.57,US,1681783478
18,evanston,42.0411,-87.6901,4.29,63,75,9.77,US,1681783478
19,upernavik,72.7868,-56.1549,-19.07,100,98,2.18,GL,1681783172
20,comodoro rivadavia,-45.8667,-67.5,11.92,40,0,9.77,AR,1681783224
21,kochki,54.3358,80.4806,-5.2,40,100,7.87,RU,1681783479
22,port elizabeth,-33.918,25.5701,18.51,96,100,5.66,ZA,1681783180
23,weiser,44.251,-116.9693,9.92,73,100,1.79,US,1681783304
24,wattegama,6.7989,81.4808,26.88,73,5,0.54,LK,1681783479
25,carnarvon,-24.8667,113.6333,25.76,33,6,6.22,AU,1681783166
26,butaritari,3.0707,172.7902,27.73,74,86,2.54,KI,1681783160
27,punta arenas,-53.15,-70.9167,7.06,81,75,9.26,CL,1681783053
28,lompoc,34.6391,-120.4579,15.43,75,0,8.75,US,1681783245
29,clyde river,70.4692,-68.5914,-14.87,66,0,7.72,CA,1681783182
30,sitka,57.0531,-135.33,8.94,57,40,5.14,US,1681783065
31,tuktoyaktuk,69.4541,-133.0374,-15.0,78,100,6.69,CA,1681783158
32,lasa,46.6166,10.7002,5.76,91,54,0.79,IT,1681783200
33,bengkulu,-3.8004,102.2655,28.37,70,58,0.39,ID,1681783163
34,rikitea,-23.1203,-134.9692,25.97,80,98,5.55,PF,1681783162
35,mataura,-46.1927,168.8643,12.09,91,91,0.41,NZ,1681783153
36,solnechnyy,50.7214,136.6319,9.03,46,12,2.34,RU,1681783481
37,loukhi,66.0764,33.0381,-3.61,97,55,0.84,RU,1681783482
38,hobyo,5.3505,48.5268,27.98,77,100,4.14,SO,1681783199
39,avarua,-21.2078,-159.775,27.03,57,20,8.75,CK,1681782903
40,ostrovnoy,68.0531,39.5131,0.72,86,100,4.0,RU,1681783171
41,cape town,-33.9258,18.4232,16.88,90,100,2.68,ZA,1681783004
42,lebu,-37.6167,-73.65,11.68,69,100,6.85,CL,1681783247
43,zigong,29.3416,104.7769,26.31,63,100,1.83,CN,1681783483
44,nikolskoye,59.7035,30.7861,2.67,96,100,1.67,RU,1681783154
45,hermanus,-34.4187,19.2345,15.31,70,3,0.86,ZA,1681783158
46,tual,-5.6667,132.75,27.98,78,95,3.45,ID,1681783483
47,tuburan,6.6439,122.2736,29.05,70,85,1.8,PH,1681783483
48,ribeira grande,38.5167,-28.7,12.65,76,98,1.79,PT,1681783185
49,tautira,-17.7333,-149.15,27.35,76,99,4.02,PF,1681783314
50,kapuskasing,49.4169,-82.4331,-2.0,93,100,4.63,CA,1681783484
51,marsh harbour,26.5412,-77.0636,25.5,73,55,2.81,BS,1681783217
52,houma,29.5958,-90.7195,17.22,68,0,2.57,US,1681783368
53,grand gaube,-20.0064,57.6608,25.22,81,16,6.02,MU,1681783484
54,puerto ayora,-0.7393,-90.3518,26.97,95,94,2.37,EC,1681783148
55,gimli,50.6336,-96.9907,4.01,41,5,4.12,CA,1681783485
56,bredasdorp,-34.5322,20.0403,13.27,84,0,0.88,ZA,1681783149
57,howard springs,-12.497,131.047,28.23,66,45,3.71,AU,1681783485
58,san carlos de bariloche,-41.1456,-71.3082,5.86,52,75,8.23,AR,1681783485
59,guarda,40.5373,-7.2658,8.3,54,18,3.14,PT,1681783485
60,dikson,73.5069,80.5464,-17.17,97,61,0.97,RU,1681783160
61,pisco,-13.7,-76.2167,23.03,78,40,6.69,PE,1681783180
62,zhigansk,66.7697,123.3711,-4.48,84,48,5.11,RU,1681783158
63,buraydah,26.326,43.975,21.25,68,0,3.24,SA,1681783474
64,georgetown,5.4112,100.3354,29.97,79,20,2.06,MY,1681783036
65,narsaq,60.9167,-46.05,4.12,80,47,1.58,GL,1681783261
66,yellowknife,62.456,-114.3525,6.29,49,75,7.72,CA,1681783150
67,wembley,-31.9333,115.8,20.11,60,0,7.2,AU,1681783487
68,hobart,-42.8794,147.3294,20.92,63,20,4.12,AU,1681783163
69,bilibino,68.0546,166.4372,-5.2,80,100,1.71,RU,1681783305
70,lorengau,-2.0226,147.2712,28.55,77,16,3.01,PG,1681783487
71,ballina,-28.8667,153.5667,23.21,53,77,7.17,AU,1681783487
72,longyearbyen,78.2186,15.6401,-6.09,73,75,2.57,SJ,1681783160
73,torbay,47.6666,-52.7314,-1.8,88,20,1.54,CA,1681783157
74,chuy,-33.6971,-53.4616,12.37,74,11,1.5,UY,1681783172
75,naze,28.3667,129.4833,22.51,79,44,4.92,JP,1681783488
76,kathmandu,27.7167,85.3167,20.12,52,20,0.0,NP,1681783488
77,new norfolk,-42.7826,147.0587,20.72,62,81,2.24,AU,1681783183
78,olean,42.0776,-78.4297,3.38,84,95,4.78,US,1681783489
79,talnakh,69.4865,88.3972,-18.22,83,5,0.44,RU,1681783245
80,manubul,5.4732,120.7986,28.49,71,100,1.75,PH,1681783489
81,saint-augustin,51.226,-58.6502,1.22,68,30,1.15,CA,1681783489
82,mareeba,-17.0,145.4333,25.4,85,100,1.61,AU,1681783489
83,berga,60.392,5.328,6.19,80,29,0.0,NO,1681783489
84,kapaa,22.0752,-159.319,25.99,81,20,5.66,US,1681782885
85,nizhnyaya tavda,57.6731,66.1725,-2.04,53,98,2.09,RU,1681783490
86,namatanai,-3.6667,152.4333,29.14,67,23,0.71,PG,1681783271
87,leningradskiy,69.3833,178.4167,-9.91,81,59,4.64,RU,1681783231
88,saint-philippe,-21.3585,55.7679,24.77,83,63,4.22,RE,1681783145
89,bilma,18.6853,12.9164,27.9,9,10,3.38,NE,1681783262
90,ahuimanu,21.4447,-157.8378,27.84,71,20,4.63,US,1681783491
91,erdenet,49.0333,104.0833,10.34,24,50,4.65,MN,1681783177
92,sehithwa,-20.4667,22.7167,21.38,38,92,2.15,BW,1681783491
93,barrow,71.2906,-156.7887,-16.99,78,0,6.17,US,1681783156
94,srednekolymsk,67.45,153.6833,-1.54,90,100,0.63,RU,1681783491
95,manokwari,-0.8667,134.0833,27.71,77,100,1.43,ID,1681783279
96,los llanos de aridane,28.6585,-17.9182,16.86,82,96,2.68,ES,1681783197
97,eyl,7.9803,49.8164,27.02,74,32,4.03,SO,1681783492
98,kodiak,57.79,-152.4072,1.73,30,100,7.2,US,1681783153
99,dzhebariki-khaya,62.2167,135.8,0.14,83,100,0.71,RU,1681783492
100,libenge,3.65,18.6333,21.73,89,100,1.76,CD,1681783492
101,khatanga,71.9667,102.5,-14.4,94,99,4.81,RU,1681783153
102,am timan,11.0297,20.2827,29.96,39,68,3.31,TD,1681783493
103,merauke,-8.4667,140.3333,26.08,88,100,3.85,ID,1681783493
104,pevek,69.7008,170.3133,-5.79,75,100,8.12,RU,1681783192
105,saint anthony,45.0205,-93.218,7.03,54,0,4.12,US,1681783257
106,canavieiras,-15.675,-38.9472,24.36,79,30,0.95,BR,1681783378
107,zeya,53.75,127.2667,5.7,70,100,1.87,RU,1681783274
108,bubaque,11.2833,-15.8333,25.72,73,96,5.97,GW,1681783170
109,tabou,4.423,-7.3528,26.22,85,11,0.34,CI,1681783494
110,arlit,18.7369,7.3853,26.01,10,0,2.66,NE,1681783158
111,wyndham,37.6985,-77.6125,13.88,67,20,0.0,US,1681783494
112,roald,62.5833,6.1333,8.52,87,100,3.09,NO,1681783165
113,waingapu,-9.6567,120.2641,28.4,74,31,2.46,ID,1681783495
114,grindavik,63.8424,-22.4338,9.97,93,40,11.32,IS,1681783259
115,rabo de peixe,37.8,-25.5833,11.73,76,20,3.09,PT,1681783312
116,vila franca do campo,37.7167,-25.4333,12.23,77,14,2.14,PT,1681783170
117,iqaluit,63.7506,-68.5145,-16.15,78,20,4.12,CA,1681783188
118,goderich,43.7501,-81.7165,3.84,93,100,9.77,CA,1681783191
119,vega de alatorre,20.0333,-96.6333,23.86,84,20,2.51,MX,1681783496
120,baruun-urt,46.6806,113.2792,6.44,23,73,7.71,MN,1681783496
121,port alfred,-33.5906,26.891,19.16,73,0,4.35,ZA,1681783151
122,paragould,36.0584,-90.4973,16.04,50,0,3.63,US,1681783376
123,fort walton beach,30.4058,-86.6188,18.88,41,0,1.79,US,1681783306
124,alice springs,-23.7,133.8833,18.75,48,0,5.66,AU,1681783237
125,touros,-5.1989,-35.4608,25.36,89,86,3.3,BR,1681783160
126,chemainus,48.9163,-123.7194,7.98,80,91,1.56,CA,1681783497
127,saldanha,-33.0117,17.9442,15.77,87,0,5.66,ZA,1681783253
128,axim,4.8699,-2.2405,26.59,85,87,1.41,GH,1681783497
129,huntington,38.4193,-82.4452,13.5,46,0,4.63,US,1681783329
130,hithadhoo,-0.6,73.0833,28.47,67,11,1.89,MV,1681783151
131,vila,42.0304,-8.1588,9.49,63,68,2.38,PT,1681783304
132,codajas,-3.8367,-62.0569,23.27,98,100,0.86,BR,1681783431
133,hilo,19.7297,-155.09,26.25,70,100,3.6,US,1681783150
134,teya,60.3778,92.6267,-4.14,93,100,4.83,RU,1681783308
135,bathsheba,13.2167,-59.5167,26.34,78,20,10.29,BB,1681783222
136,san ignacio,17.1561,-89.0714,21.08,100,40,0.0,BZ,1681783499
137,lithakia,37.7167,20.8333,8.65,78,100,2.24,GR,1681783499
138,thompson,55.7435,-97.8558,-1.91,46,0,2.57,CA,1681783162
139,ures,29.4333,-110.4,24.67,17,33,5.7,MX,1681783500
140,okato,-39.2,173.8833,20.65,72,100,7.15,NZ,1681783500
141,coquimbo,-29.9533,-71.3436,13.85,88,0,1.03,CL,1681783500
142,fortuna,40.5982,-124.1573,9.25,89,68,3.58,US,1681783264
143,ahipara,-35.1667,173.1667,21.56,73,48,5.88,NZ,1681783500
144,kokkola,63.8385,23.1307,1.07,91,0,1.03,FI,1681783500
145,east london,-33.0153,27.9116,19.72,34,0,3.37,ZA,1681783234
146,petropavlovsk-kamchatskiy,53.0452,158.6483,1.33,100,100,5.0,RU,1681783199
147,lagoa,39.05,-27.9833,13.83,64,41,4.69,PT,1681783178
148,zhanakorgan,43.9098,67.2495,4.03,42,0,5.29,KZ,1681783501
149,pontianak,-0.0333,109.3333,27.99,83,20,2.57,ID,1681783258
150,randazzo,37.8774,14.9501,8.79,95,82,2.02,IT,1681783501
151,severodvinsk,64.5635,39.8302,-5.94,91,34,1.27,RU,1681783502
152,srinagar,34.0833,74.8167,13.28,80,100,2.23,IN,1681783502
153,jamestown,42.097,-79.2353,2.77,92,100,7.2,US,1681782865
154,bambous virieux,-20.3428,57.7575,25.14,88,40,3.09,MU,1681783161
155,taoudenni,22.6783,-3.9836,27.41,14,15,3.52,ML,1681783503
156,rosario,-32.9468,-60.6393,14.58,82,0,2.57,AR,1681783084
157,airai,-8.9266,125.4092,20.58,81,80,0.59,TL,1681783171
158,alyangula,-13.8483,136.4192,28.47,59,100,5.61,AU,1681783503
159,agen,44.2,0.6333,9.28,81,0,1.54,FR,1681783504
160,dawlatabad,36.4141,64.9053,8.98,62,100,2.87,AF,1681783504
161,mildura,-34.2,142.15,22.26,51,0,1.93,AU,1681783505
162,berlevag,70.8578,29.0864,4.0,81,100,6.17,NO,1681783505
163,galesong,-5.3166,119.3661,30.01,73,97,0.73,ID,1681783505
164,kavieng,-2.5744,150.7967,28.83,67,37,1.64,PG,1681783187
165,mikhaylovka,50.06,43.2379,4.83,58,94,3.22,RU,1681783506
166,magdagachi,53.45,125.8,-1.39,93,100,3.99,RU,1681783506
167,sobolevo,54.4299,31.8996,7.17,80,100,2.61,RU,1681783506
168,leshukonskoye,64.8989,45.7622,-3.1,94,100,0.55,RU,1681783507
169,kahului,20.8947,-156.47,29.01,63,20,8.23,US,1681783152
170,faanui,-16.4833,-151.75,27.86,75,89,5.36,PF,1681783196
171,nalut,30.3333,10.85,13.86,50,0,6.96,LY,1681783507
172,mandan,46.8267,-100.8896,6.87,54,0,6.17,US,1681783508
173,chokurdakh,70.6333,147.9167,-12.05,91,100,3.34,RU,1681783175
174,abha,18.2164,42.5053,13.9,72,0,0.0,SA,1681783260
175,kirakira,-10.4544,161.9205,28.23,73,94,2.06,SB,1681783509
176,vao,-22.6667,167.4833,25.83,86,90,8.73,NC,1681783509
177,acapulco,16.8634,-99.8901,26.87,79,16,2.29,MX,1681783292
178,meulaboh,4.1363,96.1285,27.59,80,99,1.21,ID,1681783509
179,ustka,54.5805,16.8619,5.36,92,83,4.54,PL,1681783510
180,kloulklubed,7.0419,134.2556,28.49,75,67,3.27,PW,1681783173
181,xinqing,48.2333,129.5,10.02,35,100,5.33,CN,1681783510
182,marawi,7.9986,124.2928,28.15,59,68,1.03,PH,1681783255
183,russell,32.3502,-85.1999,16.78,66,0,0.0,US,1681783511
184,deputatskiy,69.3,139.9,-8.73,85,100,1.34,RU,1681783511
185,muzhi,65.3667,64.6667,-11.79,79,67,2.12,RU,1681783511
186,amapa,1.0,-52.0,22.56,100,100,1.25,BR,1681783227
187,bluff,-46.6,168.3333,14.22,72,47,7.23,NZ,1681783150
188,kuah,6.3265,99.8432,28.99,84,20,1.03,MY,1681783512
189,sao filipe,14.8961,-24.4956,23.06,79,77,8.51,CV,1681783257
190,rocha,-34.4833,-54.3333,9.15,81,4,1.56,UY,1681783512
191,barreiras,-12.1528,-44.99,25.4,57,62,0.93,BR,1681783513
192,sibolga,1.7427,98.7792,27.45,82,99,0.2,ID,1681783513
193,midland,31.9974,-102.0779,20.45,43,0,7.2,US,1681783398
194,ancud,-41.8697,-73.8203,10.03,85,100,4.7,CL,1681783170
195,batagay-alyta,67.8006,130.4114,-7.49,80,90,0.31,RU,1681783514
196,saint-pierre,-21.3393,55.4781,24.82,69,75,2.57,RE,1681783250
197,isangel,-19.55,169.2667,28.81,77,45,7.64,VU,1681783237
198,kirgiz-miyaki,53.6324,54.7979,4.63,67,100,2.9,RU,1681783514
199,altay,47.8667,88.1167,0.87,78,100,6.89,CN,1681783280
200,arraial do cabo,-22.9661,-42.0278,22.98,94,0,3.09,BR,1681783189
201,tarakan,3.3,117.6333,26.72,89,20,2.57,ID,1681783515
202,pinczow,50.5205,20.5265,9.36,93,100,4.88,PL,1681783515
203,zepce,44.4267,18.0378,9.87,98,100,1.57,BA,1681783516
204,college,64.8569,-147.8028,0.18,64,75,2.57,US,1681783516
205,victoria,22.2855,114.1577,29.13,81,12,1.34,HK,1681783090
206,dunedin,-45.8742,170.5036,13.78,91,100,1.79,NZ,1681783236
207,adrar,20.5022,-10.0711,27.21,25,34,2.16,MR,1681783267
208,seoul,37.5683,126.9778,10.76,93,100,3.6,KR,1681783127
209,kilindoni,-7.9139,39.6668,26.62,83,99,6.97,TZ,1681783517
210,provideniya,64.3833,-173.3,-6.94,68,40,2.0,RU,1681783246
211,la orilla,17.9833,-102.2333,24.88,82,9,1.14,MX,1681783518
212,caibarien,22.5206,-79.4669,22.62,77,94,0.5,CU,1681783518
213,concordia,-31.393,-58.0209,13.21,93,6,2.22,AR,1681783098
214,rozkishne,48.5074,39.3004,6.63,56,100,6.06,UA,1681783518
215,bethel,41.3712,-73.414,14.94,63,85,3.4,US,1681783119
216,lata,40.1629,-8.3327,12.82,53,31,1.89,PT,1681783223
217,smithers,54.7804,-127.1743,8.18,34,20,3.6,CA,1681783362
218,yeppoon,-23.1333,150.7333,27.88,62,48,8.33,AU,1681783299
219,souillac,-20.5167,57.5167,25.21,88,40,3.09,MU,1681783155
220,riyadh,24.6877,46.7219,17.08,65,78,2.45,SA,1681783475
221,cherskiy,68.75,161.3,-0.63,78,100,4.02,RU,1681783232
222,nelidovo,56.2211,32.7774,6.35,77,100,1.82,RU,1681783520
223,esperance,-33.8667,121.9,17.07,56,100,5.64,AU,1681783193
224,doha,25.2867,51.5333,22.99,68,0,4.12,QA,1681783340
225,paracuru,-3.41,-39.0306,27.84,88,100,3.2,BR,1681783520
226,kenai,60.5544,-151.2583,3.05,55,40,5.14,US,1681783384
227,raudeberg,61.9875,5.1352,4.98,76,95,1.0,NO,1681783521
228,mar del plata,-38.0023,-57.5575,13.38,92,75,2.57,AR,1681783113
229,geraldton,-28.7667,114.6,22.23,56,0,5.66,AU,1681783252
230,samarai,-10.6167,150.6667,28.2,69,100,2.76,PG,1681783270
231,ponta do sol,32.6667,-17.1,18.35,62,35,2.18,PT,1681783196
232,rybachiy,48.7073,44.7449,-0.08,52,97,2.79,RU,1681783522
233,valparaiso,-33.0393,-71.6273,13.8,54,0,1.54,CL,1681783116
234,nanga eboko,4.6833,12.3667,21.18,89,100,0.21,CM,1681783522
235,camana,-16.6228,-72.7111,21.7,84,100,3.06,PE,1681783523
236,avera,33.194,-82.5271,15.31,53,0,3.55,US,1681783169
237,mazatlan,23.2167,-106.4167,23.98,53,40,1.54,MX,1681783416
238,soyo,-6.1349,12.3689,25.32,91,100,2.68,AO,1681783146
239,toyooka,35.5333,134.8333,16.03,58,0,3.09,JP,1681783451
240,jalu,29.0331,21.5482,17.7,51,76,6.8,LY,1681783524
241,nouadhibou,20.931,-17.0347,19.99,83,45,3.09,MR,1681783308
242,severo-kurilsk,50.6789,156.125,0.72,100,100,3.42,RU,1681783173
243,sterling,39.0062,-77.4286,14.56,48,75,4.12,US,1681783089
244,sinnamary,5.3833,-52.95,25.17,89,100,5.53,GF,1681783524
245,vardo,70.3705,31.1107,1.99,93,100,2.06,NO,1681783249
246,namibe,-15.1961,12.1522,24.73,76,18,1.11,AO,1681783185
247,phalombe,-15.8064,35.6507,16.76,94,84,1.24,MW,1681783525
248,sisimiut,66.9395,-53.6735,-8.96,87,46,4.75,GL,1681783525
249,sucua,-2.4667,-78.1667,20.94,98,100,0.65,EC,1681783526
250,banjar,-8.19,114.9675,30.03,60,100,0.47,ID,1681783526
251,shimoda,34.6667,138.95,17.84,51,11,4.23,JP,1681783526
252,lavrentiya,65.5833,-171.0,-9.9,85,47,2.46,RU,1681783281
253,sur,22.5667,59.5289,27.03,63,58,0.18,OM,1681783288
254,prince rupert,54.3161,-130.3201,9.05,60,0,6.69,CA,1681783233
255,abalak,58.1286,68.5944,-5.51,62,14,2.76,RU,1681783527
256,vila velha,-20.3297,-40.2925,23.97,92,0,2.06,BR,1681783527
257,saint george,37.1041,-113.5841,26.33,13,0,11.83,US,1681783161
258,byron bay,-28.65,153.6167,23.17,52,61,7.51,AU,1681783527
259,koson,39.0375,65.585,3.18,47,100,5.52,UZ,1681783528
260,cangucu,-31.395,-52.6756,10.49,95,2,0.9,BR,1681783247
261,mazamari,-11.3258,-74.5308,20.77,99,100,0.31,PE,1681783528
262,srebrenik,44.7078,18.4881,10.36,99,100,1.57,BA,1681783528
263,iralaya,15.0,-83.2333,26.18,78,7,4.71,HN,1681783528
264,teacapan,22.55,-105.75,21.47,74,2,2.24,MX,1681783529
265,kruisfontein,-34.0033,24.7314,14.0,62,0,2.02,ZA,1681783529
266,corinto,37.9407,22.9573,12.72,82,39,3.01,GR,1681783530
267,sarangani,5.4033,125.4636,28.64,74,78,6.42,PH,1681783530
268,yanam,16.7333,82.2167,29.34,64,0,1.46,IN,1681783530
269,dauphin,51.1494,-100.0502,6.08,42,100,4.63,CA,1681783328
270,zhengjiatun,43.5064,123.5064,14.37,13,0,8.53,CN,1681783531
271,tomatlan,19.9333,-105.25,21.45,75,0,1.46,MX,1681783531
272,katy,29.7858,-95.8244,20.44,52,21,2.24,US,1681783531
273,mut,36.6439,33.4389,17.6,28,49,2.01,TR,1681783532
274,verkhoyansk,67.5447,133.385,-2.07,81,100,1.74,RU,1681783275
275,cedar city,37.6775,-113.0619,15.54,23,0,7.72,US,1681783532
276,mahebourg,-20.4081,57.7,25.16,88,40,3.09,MU,1681783259
277,cayenne,4.9333,-52.3333,24.02,100,75,1.54,GF,1681783159
278,zhuanghe,39.7008,122.9911,13.73,59,0,2.22,CN,1681783533
279,walvis bay,-22.9575,14.5053,18.63,76,59,2.75,NA,1681783235
280,san policarpo,12.1791,125.5072,28.82,73,66,4.17,PH,1681783156
281,talcahuano,-36.7167,-73.1167,10.82,62,0,4.63,CL,1681783533
282,necochea,-38.5473,-58.7368,11.03,91,76,2.39,AR,1681783157
283,garden city,42.3256,-83.331,3.41,71,100,6.17,US,1681783247
284,zyryanka,65.75,150.85,-2.81,86,100,4.28,RU,1681783534
285,curanilahue,-37.4667,-73.35,5.38,85,72,2.0,CL,1681783535
286,castro,-24.7911,-50.0119,17.06,98,20,1.54,BR,1681783189
287,resistencia,-27.4606,-58.9839,18.94,84,0,1.54,AR,1681783366
288,barkly west,-28.5354,24.5215,14.6,34,0,4.09,ZA,1681783536
289,magistralnyy,56.1725,107.4458,-4.47,74,100,1.0,RU,1681783536
290,ixtapa,20.7,-105.2,24.57,79,1,0.45,MX,1681783276
291,belyy yar,53.6039,91.3903,-1.06,55,0,8.0,RU,1681783536
292,male,4.1748,73.5089,27.97,89,20,1.03,MV,1681783537
293,tilichiki,60.4667,166.1,-0.63,99,100,10.53,RU,1681783293
294,tessalit,20.1986,1.0114,25.62,10,0,2.97,ML,1681783537
295,fairbanks,64.8378,-147.7164,0.19,64,75,2.57,US,1681783509
296,sorong,-0.8833,131.25,28.99,70,100,2.15,ID,1681783537
297,borovoy,55.4333,86.0833,-12.4,61,40,4.0,RU,1681783538
298,itarema,-2.9248,-39.9167,25.19,89,100,3.45,BR,1681783538
299,cotonou,6.3654,2.4183,27.99,83,40,3.09,BJ,1681783538
300,kindersley,51.4668,-109.1682,12.01,19,20,13.38,CA,1681783538
301,kaeo,-35.1,173.7833,21.29,94,74,6.08,NZ,1681783308
302,tete,-16.1564,33.5867,18.6,93,53,1.25,MZ,1681783264
303,cidreira,-30.1811,-50.2056,19.68,71,97,3.25,BR,1681783185
304,wageningen,51.9667,5.6667,8.05,72,7,4.63,NL,1681783160
305,noumea,-22.2763,166.4572,26.67,99,100,8.14,NC,1681783539
306,barcelos,41.5388,-8.6151,18.71,66,70,2.44,PT,1681783539
307,klamath falls,42.2249,-121.7817,0.95,91,100,9.26,US,1681783539
308,partizanskoye,55.5006,94.39,-6.04,55,30,10.33,RU,1681783539
309,maniitsoq,65.4167,-52.9,-2.5,72,58,6.59,GL,1681783175
310,general pico,-35.6566,-63.7568,9.04,68,0,6.09,AR,1681783540
311,broken hill,-31.95,141.4333,19.36,33,43,1.77,AU,1681783168
312,chadiza,-14.0678,32.4392,14.81,97,99,1.59,ZM,1681783540
313,ilulissat,69.2167,-51.1,-12.03,97,100,2.44,GL,1681783172
314,tabas,33.5959,56.9244,17.12,36,58,3.09,IR,1681783541
315,badarwas,24.9667,77.5667,28.93,24,0,4.66,IN,1681783541
316,dongying,37.4564,118.4856,20.94,41,51,4.28,CN,1681783541
317,apastovo,55.2029,48.5109,6.57,57,100,2.88,RU,1681783541
318,ketchikan,55.3422,-131.6461,9.26,49,0,5.14,US,1681783541
319,husavik,66.0449,-17.3389,5.5,75,3,6.02,IS,1681783542
320,kailua,21.4022,-157.7394,27.99,73,20,4.63,US,1681783542
321,balad,34.0164,44.1453,20.76,40,1,3.0,IQ,1681783542
322,hofn,64.2539,-15.2082,7.44,97,100,3.7,IS,1681783542
323,rognedino,53.8015,33.5576,4.26,82,61,2.44,RU,1681783543
324,liverpool,53.4106,-2.9779,7.56,86,0,3.6,GB,1681783459
325,faya,18.3851,42.4509,14.06,63,22,2.01,SA,1681783314
326,huaraz,-9.5333,-77.5333,10.47,94,100,0.34,PE,1681783486
327,richards bay,-28.783,32.0377,18.13,74,0,3.7,ZA,1681783543
328,mount gambier,-37.8333,140.7667,21.18,51,0,4.38,AU,1681783221
329,acari,-15.4311,-74.6158,22.6,79,100,1.59,PE,1681783543
330,clarence town,-32.5833,151.7833,22.7,48,63,3.03,AU,1681783544
331,makurdi,7.7411,8.5121,29.13,60,100,2.28,NG,1681783544
332,klaksvik,62.2266,-6.589,11.51,97,62,5.74,FO,1681783261
333,loreto,22.2667,-101.9667,21.9,16,40,4.41,MX,1681783544
334,sharlyk,52.9167,54.75,5.22,63,100,2.71,RU,1681783545
335,aklavik,68.2191,-135.0107,-13.3,88,100,7.39,CA,1681783246
336,neuquen,-38.9516,-68.0591,13.94,33,0,5.66,AR,1681783545
337,coihaique,-45.5752,-72.0662,8.97,66,75,6.69,CL,1681783177
338,desaguadero,-16.5656,-69.0417,7.65,45,17,1.95,PE,1681783545
339,kampene,-3.6,26.6667,19.62,100,98,0.24,CD,1681783546
340,lazaro cardenas,17.9583,-102.2,25.22,81,15,1.15,MX,1681783068
341,sabang,5.8933,95.3214,28.31,77,80,1.6,ID,1681783164
342,klyuchi,52.2667,79.1667,-6.54,69,13,7.86,RU,1681783546
343,tshikapa,-6.4167,20.8,21.33,96,100,1.22,CD,1681783197
344,pospelikha,51.95,81.7667,-10.69,82,20,6.08,RU,1681783547
345,matay,28.419,30.7792,23.22,15,0,1.48,EG,1681783547
346,beringovskiy,63.05,179.3167,0.73,87,100,3.85,RU,1681783547
347,bukama,-9.2,25.85,19.36,96,97,0.9,CD,1681783547
348,rypin,53.066,19.4094,9.53,89,100,4.34,PL,1681783547
349,henties bay,-22.116,14.2845,20.12,68,18,1.63,NA,1681783155
350,waipawa,-41.4122,175.5153,18.35,60,99,3.82,NZ,1681783287
351,bulgan,48.8125,103.5347,12.44,21,45,5.73,MN,1681783548
352,batagay,67.6333,134.6333,-2.85,82,100,1.71,RU,1681783277
353,scottsbluff,41.8666,-103.6672,19.62,24,0,3.09,US,1681783548
354,cap-aux-meules,47.3821,-61.8597,3.03,81,100,5.66,CA,1681783502
355,champerico,14.3,-91.9167,28.98,61,14,1.68,GT,1681783548
356,tiksi,71.6872,128.8694,-12.77,93,100,3.21,RU,1681783146
357,san juan,-31.5375,-68.5364,14.79,42,0,8.17,AR,1681783549
358,pinsk,52.1229,26.0951,8.13,80,100,3.69,BY,1681783313
359,manta,-0.95,-80.7333,25.88,89,40,2.06,EC,1681783549
360,beaucaire,43.8081,4.6442,11.98,72,0,3.09,FR,1681783549
361,hasaki,35.7333,140.8333,18.22,72,100,8.34,JP,1681783184
362,severnyy,50.677,36.5532,5.02,56,0,3.13,RU,1681783415
363,kaitangata,-46.2817,169.8464,13.69,86,100,1.29,NZ,1681783171
364,tuatapere,-46.1333,167.6833,17.84,36,1,1.9,NZ,1681783250
365,itoman,26.1247,127.6694,26.01,70,20,9.26,JP,1681783550
366,iberia,29.9502,-91.7507,17.25,59,0,0.0,US,1681783551
367,lensk,60.7253,114.9278,-2.62,63,39,1.1,RU,1681783347
368,nemuro,43.3236,145.575,4.63,68,7,2.52,JP,1681783188
369,harsud,22.1,76.7333,31.66,16,30,1.25,IN,1681783551
370,bereda,43.2686,-7.5406,7.54,100,53,1.71,ES,1681783551
371,innisfail,-17.5333,146.0333,23.43,88,100,3.36,AU,1681783552
372,afua,-0.1567,-50.3867,24.32,93,89,1.6,BR,1681783552
373,matara,5.9485,80.5353,27.43,76,6,1.44,LK,1681783552
374,pauini,-7.7136,-66.9764,22.96,99,100,0.86,BR,1681783552
375,belfort,47.6333,6.8667,6.88,97,46,2.54,FR,1681783552
376,nishihara,26.1842,127.7558,25.6,74,20,9.26,JP,1681783177
377,sierre,46.2919,7.5356,6.71,76,40,1.54,CH,1681783301
378,nara,34.6851,135.8049,20.54,33,59,2.45,JP,1681783208
379,qatana,33.4354,36.0815,16.24,50,36,0.59,SY,1681783553
380,cairo,30.0626,31.2497,24.12,28,0,1.03,EG,1681783324
381,san jose,37.3394,-121.895,14.86,56,20,8.94,US,1681783303
382,oktyabrskiy,54.4815,53.471,5.66,63,100,3.09,RU,1681783554
383,pacific grove,36.6177,-121.9166,14.97,75,0,4.12,US,1681783177
384,rawson,-43.3002,-65.1023,13.09,47,98,5.18,AR,1681783554
385,rio grande,-32.035,-52.0986,17.91,67,97,3.42,BR,1681783268
386,molchanovo,57.5817,83.7692,-14.4,76,88,5.9,RU,1681783554
387,coos bay,43.3665,-124.2179,8.85,77,75,8.75,US,1681783554
388,kadoma,34.7333,135.5833,18.99,40,75,1.54,JP,1681783541
389,svetlogorsk,52.6333,29.7333,5.43,75,69,3.09,BY,1681783297
390,olesnica,51.2134,17.3899,8.76,95,100,5.73,PL,1681783555
391,penaflor,-33.6167,-70.9167,15.59,53,3,0.81,CL,1681783473
392,thunder bay,48.4001,-89.3168,-2.01,74,100,5.66,CA,1681783555
393,olafsvik,64.8945,-23.7142,7.2,91,32,10.33,IS,1681783555
394,mtwara,-10.2667,40.1833,23.5,95,86,4.29,TZ,1681783556
395,cap malheureux,-19.9842,57.6142,25.26,81,15,6.06,MU,1681783556
396,sept-iles,50.2001,-66.3821,3.36,82,100,8.23,CA,1681783556
397,bolivar,37.6145,-93.4105,15.15,58,0,3.74,US,1681783263
398,lappeenranta,61.0587,28.1887,1.03,47,0,3.6,FI,1681783556
399,monroe,43.1501,-77.6831,5.15,84,100,7.72,US,1681783557
400,fredericksburg,38.3032,-77.4605,16.12,52,100,3.09,US,1681783557
401,port antonio,18.18,-76.4612,27.95,84,3,1.1,JM,1681783557
402,nizhniy kuranakh,58.8353,125.4869,-4.38,68,95,3.29,RU,1681783557
403,constitucion,-35.3333,-72.4167,10.11,83,55,5.65,CL,1681782957
404,gao,16.6362,1.637,26.23,7,2,3.88,ML,1681783198
405,la ronge,55.1001,-105.2842,6.14,45,75,7.72,CA,1681783151
406,elk city,35.412,-99.4043,23.12,27,0,7.72,US,1681783558
407,guantanamo,20.1444,-75.2092,23.39,90,41,0.82,CU,1681783558
408,karwar,14.8,74.1333,26.41,79,0,2.18,IN,1681783343
409,palauig,15.435,119.9045,29.23,71,26,2.32,PH,1681783559
410,road town,18.4167,-64.6167,26.02,73,20,2.06,VG,1681783559
411,inongo,-1.95,18.2667,23.02,90,100,2.1,CD,1681783559
412,flinders,-34.5833,150.8552,23.99,59,0,1.79,AU,1681783559
413,pinawa,50.1489,-95.8811,-1.07,79,0,2.14,CA,1681783560
414,katsuura,35.1333,140.3,18.01,61,38,3.14,JP,1681783180
415,whitehorse,60.7161,-135.0538,1.68,93,100,3.09,CA,1681783288
416,kalmunai,7.4167,81.8167,27.45,75,24,2.48,LK,1681783162
417,atar,20.5169,-13.0499,26.78,26,68,2.41,MR,1681783301
418,kavaratti,10.5669,72.642,28.65,76,12,3.03,IN,1681783230
419,melivoia,39.75,22.8,9.41,96,100,2.31,GR,1681783561
420,alta floresta,-9.8756,-56.0861,22.4,93,43,1.08,BR,1681783193
421,usinsk,65.9939,57.5281,-14.96,92,6,4.0,RU,1681783269
422,uturoa,-16.7333,-151.4333,27.77,75,91,5.07,PF,1681783561
423,westport,41.1415,-73.3579,16.16,63,40,2.06,US,1681783360
424,chifeng,42.2683,118.9636,15.64,17,3,5.61,CN,1681783561
425,columbus,39.9612,-82.9988,5.03,80,100,5.66,US,1681783385
426,amuntai,-2.4177,115.2494,29.84,68,100,0.78,ID,1681783562
427,kommunisticheskiy,61.6789,64.4819,-13.49,95,50,2.72,RU,1681783563
428,strezhevoy,60.7333,77.5889,-17.8,87,22,4.04,RU,1681783563
429,kununurra,-15.7667,128.7333,25.99,41,20,6.17,AU,1681783305
430,najran,17.4924,44.1277,21.36,42,75,2.35,SA,1681783564
431,mayo,38.8876,-76.5119,15.64,46,100,4.63,US,1681783564
432,bairiki,1.3292,172.9752,31.0,70,75,3.09,KI,1681783564
433,jesus del monte,19.1081,-99.9944,14.4,65,11,1.92,MX,1681783564
434,port hedland,-20.3167,118.5667,29.03,28,85,8.75,AU,1681783564
435,atasu,48.6814,71.6433,-1.4,70,8,3.72,KZ,1681783565
436,puqi,29.7167,113.8833,24.28,81,100,1.47,CN,1681783565
437,alofi,-19.0595,-169.9187,23.94,94,100,3.6,NU,1681783186
438,khani,41.9563,42.9566,7.76,83,74,2.59,GE,1681783566
439,salalah,17.0151,54.0924,27.05,78,20,1.03,OM,1681783566
440,mount isa,-20.7333,139.5,27.87,47,19,5.14,AU,1681783159
441,caranavi,-15.8167,-67.55,18.28,99,100,0.81,BO,1681783566
442,san-pedro,4.7485,-6.6363,25.4,91,36,0.75,CI,1681783566
443,tahoua,14.8888,5.2692,28.28,24,3,2.52,NE,1681783567
444,andenes,69.3143,16.1194,3.85,87,75,2.57,NO,1681783567
445,ferry pass,30.5102,-87.2125,18.99,50,0,2.06,US,1681783568
446,chebsara,59.2002,38.8356,-2.37,88,10,1.85,RU,1681783568
447,santiago,-33.4569,-70.6483,14.75,56,0,2.06,CL,1681783411
448,ambulu,-8.345,113.6058,28.24,75,81,0.26,ID,1681783568
449,podgornoye,51.735,39.1496,1.12,69,0,1.0,RU,1681783569
450,arnedo,42.2167,-2.1,5.72,74,0,4.18,ES,1681783569
451,ouango,4.3133,22.5552,21.97,95,100,0.26,CF,1681783569
452,chumikan,54.7183,135.315,3.48,80,88,0.11,RU,1681783569
453,bandar-e lengeh,26.5579,54.8807,23.13,64,33,0.15,IR,1681783570
454,nizhniy baskunchak,48.2198,46.8311,5.27,60,67,3.41,RU,1681783570
455,stornoway,58.2093,-6.3865,9.96,93,94,0.0,GB,1681783571
456,macon,39.8667,-88.9668,12.03,37,0,4.12,US,1681783571
457,manzil salim,35.8567,8.4765,6.59,77,39,1.12,TN,1681783572
458,erseke,40.3378,20.6789,3.84,91,100,0.61,AL,1681783572
459,tura,25.5198,90.2201,29.6,56,0,3.9,IN,1681783192
460,tabory,58.5198,64.5495,-2.12,75,94,2.15,RU,1681783572
461,general roca,-39.0333,-67.5833,13.12,36,97,9.92,AR,1681783572
462,chardara,41.2547,67.9692,4.71,54,100,5.13,KZ,1681783573
463,nome,64.5011,-165.4064,-8.24,65,0,1.19,US,1681783251
464,mount pleasant,32.7941,-79.8626,18.33,55,0,1.54,US,1681783573
465,abaete,-19.16,-45.4458,21.33,71,5,0.65,BR,1681783573
466,harda,22.3333,77.1,31.23,16,41,0.96,IN,1681783574
467,lincoln,40.8,-96.667,15.65,48,0,4.63,US,1681783344
468,bam,29.106,58.357,18.14,39,100,8.15,IR,1681783574
469,tukan,53.8409,57.4552,0.76,79,99,1.71,RU,1681783575
470,zimovniki,47.1483,42.4633,4.14,65,100,6.73,RU,1681783575
471,caravelas,-17.7125,-39.2481,24.4,85,2,2.59,BR,1681783248
472,shache,38.4167,77.2406,17.86,28,77,10.15,CN,1681783575
473,nanortalik,60.1432,-45.2371,-1.5,94,98,1.74,GL,1681783163
474,poso,-1.3959,120.7524,30.12,62,91,1.66,ID,1681783576
475,codrington,-38.2667,141.9667,20.82,53,0,7.66,AU,1681783172
476,stephenville crossing,48.5,-58.4318,5.07,65,20,3.6,CA,1681783576
477,eureka,40.8021,-124.1637,9.4,92,44,1.34,US,1681783577
478,hamilton,39.1834,-84.5333,9.41,75,44,3.36,US,1681783265
479,wanaka,-44.7,169.15,15.06,85,100,2.68,NZ,1681783577
480,mount darwin,-16.7725,31.5838,13.98,97,24,0.86,ZW,1681783577
481,svetlyy,54.675,20.1347,8.03,90,100,3.67,RU,1681783577
482,camopi,3.1655,-52.3158,22.82,100,100,0.84,GF,1681783578
483,flin flon,54.7682,-101.865,0.24,85,100,4.47,CA,1681783578
484,chimore,-16.9833,-65.1333,22.74,99,86,0.48,BO,1681783578
485,sao gabriel da cachoeira,-0.1303,-67.0892,23.17,90,100,0.29,BR,1681783578
486,maralal,1.0968,36.698,14.0,91,69,1.72,KE,1681783579
487,broome,42.2506,-75.833,8.7,68,100,2.57,US,1681783579
488,port macquarie,-31.4333,152.9167,22.72,51,67,3.55,AU,1681783579
489,khuchni,41.9499,47.9485,4.13,90,77,0.53,RU,1681783579
490,yining,29.0361,114.5636,21.79,93,100,0.54,CN,1681783186
491,buchanan,5.8808,-10.0467,26.71,86,85,2.07,LR,1681783231
492,nampula,-15.1165,39.2666,17.53,99,43,1.92,MZ,1681783580
493,barstow,34.8986,-117.0228,21.55,31,22,12.26,US,1681783580
494,tongzi,28.7829,105.0877,26.41,62,80,2.48,CN,1681783580
495,marica,-22.9194,-42.8186,27.95,80,97,1.99,BR,1681783580
496,hammerfest,70.6634,23.6821,4.25,93,75,4.12,NO,1681783581
497,maldonado,-34.6667,-54.9167,13.41,76,5,2.03,UY,1681783595
498,eirunepe,-6.6603,-69.8736,22.31,93,100,0.52,BR,1681783581
499,yekaterinoslavka,50.3734,129.1139,10.68,36,100,7.83,RU,1681783581
500,arica,-18.475,-70.3042,21.75,73,100,2.06,CL,1681783540
501,ipixuna,-1.7625,-48.8043,24.04,95,99,1.5,BR,1681783582
502,nabire,-3.3667,135.4833,29.29,63,99,1.21,ID,1681783267
503,lunenburg,44.3835,-64.3155,5.0,99,100,6.69,CA,1681783582
504,pahrump,36.2083,-115.9839,24.03,14,71,4.02,US,1681783583
505,puerto ayacucho,5.6639,-67.6236,24.73,87,100,1.86,VE,1681783583
506,harstad,68.799,16.5293,4.34,96,80,3.58,NO,1681783583
507,vavoua,7.3819,-6.4778,23.04,94,81,1.44,CI,1681783583
508,boden,65.8252,21.6886,1.0,98,19,1.72,SE,1681783584
509,zatyshshya,47.3335,29.8733,7.08,77,100,3.92,UA,1681783584
510,banda aceh,5.5577,95.3222,28.99,76,91,2.12,ID,1681783584
511,aguia branca,-18.9831,-40.7403,22.08,82,6,0.6,BR,1681783584
512,sola,-13.8833,167.55,27.48,75,70,3.93,VU,1681783585
513,korla,41.7597,86.1469,19.27,28,32,8.82,CN,1681783176
514,bestobe,52.4994,73.0975,-3.88,52,0,8.17,KZ,1681783585
515,ulladulla,-35.35,150.4667,20.98,54,0,4.08,AU,1681783195
516,egvekinot,66.3167,-179.1667,-13.38,91,100,1.94,RU,1681783586
517,gidole,5.65,37.3667,13.59,87,100,0.53,ET,1681783586
518,bismil,37.8486,40.6658,10.85,70,93,0.23,TR,1681783586
519,belmonte,-15.8631,-38.8828,25.2,76,19,1.85,BR,1681783586
520,linjiang,41.8069,126.9078,11.59,55,99,2.56,CN,1681783587
521,scarborough,54.2797,-0.4044,7.1,92,3,2.5,GB,1681783397
522,san francisco,37.7749,-122.4194,13.32,79,75,7.72,US,1681783363
523,tateyama,34.9833,139.8667,17.96,63,40,5.14,JP,1681783247
524,waw,7.7029,27.9953,24.85,67,100,2.15,SS,1681783588
525,yagodnoye,62.55,149.6667,-5.73,80,83,1.65,RU,1681783588
526,brokopondo,4.75,-55.1667,24.24,92,100,3.92,SR,1681783588
527,camacha,33.0833,-16.3333,16.68,77,40,8.23,PT,1681783589
528,port-cartier,50.0334,-66.8654,3.19,91,100,8.43,CA,1681783589
529,vostok,46.4856,135.8833,10.24,21,2,1.27,RU,1681783589
530,luz,-19.8014,-45.6856,20.72,76,31,0.74,BR,1681783589
531,vestmannaeyjar,63.4427,-20.2734,8.13,93,0,10.14,IS,1681783590
532,umm lajj,25.0213,37.2685,25.32,43,0,4.43,SA,1681783590
533,halvad,23.0167,71.1833,26.38,69,0,4.65,IN,1681783590
534,tototlan,20.55,-102.8,23.79,25,11,3.97,MX,1681783591
535,sovetskiy,61.3614,63.5842,-12.39,94,17,2.55,RU,1681783245
536,praia da vitoria,38.7333,-27.0667,12.14,82,0,2.63,PT,1681783253
537,madera,37.1666,-119.8343,17.33,64,100,2.35,US,1681783591
538,mabaruma,8.2,-59.7833,23.63,88,90,1.57,GY,1681783592
539,morgantown,39.6295,-79.9559,7.61,71,100,2.06,US,1681783592
540,markala,13.7021,-6.0659,29.35,11,10,4.33,ML,1681783503
541,aripuana,-9.1667,-60.6333,22.84,99,100,1.26,BR,1681783268
542,osijek,45.5511,18.6939,11.34,100,100,2.06,HR,1681783592
543,havre-saint-pierre,50.2334,-63.5986,1.2,93,100,3.6,CA,1681783183
544,port lincoln,-34.7333,135.8667,21.69,49,0,7.01,AU,1681783256
545,angoram,-4.0625,144.0661,28.54,86,90,1.36,PG,1681783593
546,tibati,6.4667,12.6333,20.69,85,99,0.7,CM,1681783593
547,gravdal,68.1214,13.5031,5.1,89,100,5.36,NO,1681783593
548,san rafael del sur,11.8485,-86.4384,29.54,58,100,2.08,NI,1681783594
549,saint-francois,46.4154,3.9054,4.26,93,28,1.03,FR,1681783211
550,lere,10.387,8.5726,24.75,52,88,1.09,NG,1681783594
551,lebedyan,53.0194,39.1664,6.06,62,38,1.96,RU,1681783595
552,bedesa,8.9,40.7833,16.24,89,100,1.91,ET,1681783595
553,sunndalsora,62.6754,8.5515,7.84,55,99,2.52,NO,1681783595
554,luderitz,-26.6481,15.1594,21.15,44,5,0.91,NA,1681783194
555,saint-georges,12.0564,-61.7485,25.82,78,20,6.17,GD,1681783596
556,trani,41.2727,16.4154,9.92,88,44,5.31,IT,1681783596
557,saquena,-4.6667,-73.5167,23.46,97,100,0.82,PE,1681783597
558,rongcheng,30.634,117.8517,28.33,55,100,3.09,CN,1681783597
559,cabo rojo,18.0866,-67.1457,24.29,73,96,2.96,PR,1681783597
560,filingue,14.3521,3.3168,28.09,10,8,0.73,NE,1681783597
561,takoradi,4.8845,-1.7554,26.59,85,52,1.63,GH,1681783598
562,esil,51.9556,66.4042,-0.05,80,60,5.68,KZ,1681783598
563,sinazongwe,-17.2614,27.4618,21.48,72,1,2.62,ZM,1681783598
564,ampanihy,-24.7,44.75,18.7,90,0,3.07,MG,1681783598
565,hoquiam,46.9809,-123.8893,6.63,85,100,7.2,US,1681783301
566,montgomery,39.1501,-77.1997,13.86,50,100,0.45,US,1681783599
567,surt,31.2089,16.5887,15.66,68,0,4.88,LY,1681783076
568,renfrew,55.872,-4.3925,10.87,88,100,4.63,GB,1681783599
569,do gonbadan,30.3586,50.7981,10.05,81,0,0.0,IR,1681783599
570,ust-maya,60.4167,134.5333,-1.86,80,100,3.8,RU,1681783599
571,lenoir,35.2335,-77.6497,15.62,67,0,1.54,US,1681783600
572,del rio,29.3627,-100.8968,27.06,43,20,8.23,US,1681783425
573,hearst,49.6835,-83.6665,-4.86,95,100,3.03,CA,1681783600
574,harper,4.375,-7.7169,26.36,84,6,1.16,LR,1681783600
575,bulungu,-4.55,18.6,21.36,96,100,0.99,CD,1681783601
576,sibu,2.3,111.8167,31.59,59,28,0.83,MY,1681783601
577,palazzolo acreide,37.0623,14.9035,6.06,87,0,2.9,IT,1681783601
578,ulaanbaatar,47.9077,106.8832,6.07,24,40,7.0,MN,1681783305
579,indore,22.7179,75.8333,23.1,40,40,0.0,IN,1681783601
580,bandundu,-3.3167,17.3667,22.93,91,100,1.41,CD,1681783602
581,abu dhabi,24.4667,54.3667,24.97,69,0,1.54,AE,1681783601
582,athabasca,54.7169,-113.2854,4.32,84,100,2.91,CA,1681783602
583,marang,5.2056,103.2059,31.65,68,53,2.42,MY,1681783602
584,francisco beltrao,-26.0811,-53.055,18.84,98,100,0.97,BR,1681783602
585,jilib,0.4883,42.7854,24.77,91,98,1.04,SO,1681783603
586,moses lake,47.1301,-119.2781,11.05,50,99,3.37,US,1681783198
